{"updatedAt": "2026-04-21", "stations": [{"site": "001", "city": "Mill Hall", "state": "PA", "yourPrice": 4.9386, "savings": 0.9504, "lat": 39.3908, "lng": -78.3298, "address": "5868 Nittany Valley Drive", "zip": "17751", "phone": "(570) 726-7618", "name": "Pilot Travel Center"}, {"site": "002", "city": "Austinburg", "state": "OH", "yourPrice": 4.3671, "savings": 1.3919, "lat": 40.9888, "lng": -81.7849, "address": "2246 State Route 45", "zip": "44010", "phone": "(440) 275-3303", "name": "Pilot Travel Center"}, {"site": "003", "city": "Youngstown", "state": "OH", "yourPrice": 4.3524, "savings": 1.0466, "lat": 40.2138, "lng": -82.9049, "address": "1150 North Canfield-Niles Road", "zip": "44515", "phone": "(330) 505-3532", "name": "Pilot Travel Center"}, {"site": "004", "city": "Avon", "state": "OH", "yourPrice": 4.3521, "savings": 1.3469, "lat": 40.5638, "lng": -84.5149, "address": "39115 Colorado Road", "zip": "44011", "phone": "(440) 934-0110", "name": "Pilot Travel Center"}, {"site": "006", "city": "Cambridge", "state": "OH", "yourPrice": 4.449, "savings": 0.95, "lat": 40.4638, "lng": -82.2749, "address": "61700 Southgate Road", "zip": "43725", "phone": "(740) 439-0989", "name": "Pilot Travel Center"}, {"site": "008", "city": "Circleville", "state": "OH", "yourPrice": 4.429, "savings": 1.07, "lat": 41.0388, "lng": -82.2399, "address": "25600 US 23", "zip": "43113", "phone": "(740) 420-8942", "name": "Pilot Travel Center"}, {"site": "009", "city": "Franklin", "state": "OH", "yourPrice": 4.6685, "savings": 0.4905, "lat": 41.4388, "lng": -83.2199, "address": "6830 Franklin-Lebanon Road", "zip": "45005", "phone": "(937) 746-4488", "name": "Pilot Travel Center"}, {"site": "011", "city": "North Lima", "state": "OH", "yourPrice": 4.3424, "savings": 1.2566, "lat": 39.3388, "lng": -82.2399, "address": "10920 Market Street", "zip": "44452", "phone": "(330) 549-9203", "name": "Pilot Travel Center"}, {"site": "012", "city": "Perrysburg", "state": "OH", "yourPrice": 4.3086, "savings": 0.8904, "lat": 40.9888, "lng": -82.0999, "address": "3430 Libbey Road", "zip": "43551", "phone": "(419) 837-5091", "name": "Pilot Travel Center"}, {"site": "013", "city": "Seville", "state": "OH", "yourPrice": 4.3496, "savings": 0.9494, "lat": 40.4638, "lng": -83.8849, "address": "8924 Lake Road", "zip": "44273", "phone": "(330) 769-4220", "name": "Pilot Travel Center"}, {"site": "014", "city": "Sunbury", "state": "OH", "yourPrice": 4.429, "savings": 1.13, "lat": 40.6138, "lng": -82.0299, "address": "7680 East State Route 36", "zip": "43074", "phone": "(740) 965-5540", "name": "Pilot Travel Center"}, {"site": "015", "city": "Toledo", "state": "OH", "yourPrice": 4.3061, "savings": 0.9529, "lat": 40.0138, "lng": -81.3649, "address": "5820 Hagman Road", "zip": "43612", "phone": "(419) 729-3985", "name": "Pilot Travel Center"}, {"site": "017", "city": "Battle Creek", "state": "MI", "yourPrice": 4.3156, "savings": 0.8434, "lat": 43.8266, "lng": -86.2161, "address": "15901 Eleven Mile Road", "zip": "49014", "phone": "(269) 968-9949", "name": "Pilot Travel Center"}, {"site": "021", "city": "Dexter", "state": "MI", "yourPrice": 4.3834, "savings": 0.8756, "lat": 43.4016, "lng": -83.8011, "address": "750 Baker Road", "zip": "48130", "phone": "(734) 426-4618", "name": "Pilot Travel Center"}, {"site": "024", "city": "Monroe", "state": "MI", "yourPrice": 4.3859, "savings": 0.8131, "lat": 42.8266, "lng": -83.9761, "address": "1100 North Dixie Highway", "zip": "48162", "phone": "(734) 242-9650", "name": "Pilot Travel Center"}, {"site": "026", "city": "Ottawa Lake", "state": "MI", "yourPrice": 4.4042, "savings": 0.9548, "lat": 44.2266, "lng": -83.1011, "address": "6158 US 223", "zip": "49267", "phone": "(734) 854-1772", "name": "Pilot Travel Center"}, {"site": "029", "city": "Fremont", "state": "IN", "yourPrice": 4.518, "savings": 0.611, "lat": 40.0994, "lng": -87.2383, "address": "6900 Old US 27", "zip": "46737", "phone": "(260) 833-1987", "name": "Pilot Travel Center"}, {"site": "030", "city": "Greenfield", "state": "IN", "yourPrice": 4.5724, "savings": 0.9866, "lat": 40.3244, "lng": -85.3833, "address": "2640 North 600 West", "zip": "46140", "phone": "(317) 894-1910", "name": "Pilot Travel Center"}, {"site": "031", "city": "Highland", "state": "IN", "yourPrice": 4.352, "savings": 1.027, "lat": 39.8244, "lng": -85.4533, "address": "8150 Indianapolis Boulevard", "zip": "46322", "phone": "(219) 923-6405", "name": "Pilot Travel Center"}, {"site": "034", "city": "Remington", "state": "IN", "yourPrice": 4.377, "savings": 0.982, "lat": 38.8494, "lng": -84.8933, "address": "4154 West US Highway 24", "zip": "47977", "phone": "(219) 261-3786", "name": "Pilot Travel Center"}, {"site": "035", "city": "South Bend", "state": "IN", "yourPrice": 4.4905, "savings": 0.9685, "lat": 40.3494, "lng": -85.5583, "address": "6424 West Brick Road", "zip": "46628", "phone": "(574) 272-8212", "name": "Pilot Travel Center"}, {"site": "037", "city": "Whiteland", "state": "IN", "yourPrice": 4.5749, "savings": 1.2241, "lat": 38.7494, "lng": -86.5733, "address": "2962 East 500 North", "zip": "46184", "phone": "(317) 535-7656", "name": "Pilot Travel Center"}, {"site": "039", "city": "Monee", "state": "IL", "yourPrice": 4.6801, "savings": 0.8189, "lat": 40.0745, "lng": -88.9511, "address": "6002 Monee-Manhattan Road", "zip": "60449", "phone": "(708) 534-2483", "name": "Pilot Travel Center"}, {"site": "040", "city": "Oak Creek", "state": "WI", "yourPrice": 4.0956, "savings": 0.9634, "lat": 45.2435, "lng": -90.9115, "address": "2031 West Ryan Road", "zip": "53154", "phone": "(414) 761-0939", "name": "Pilot Travel Center"}, {"site": "041", "city": "Mt Sterling", "state": "KY", "yourPrice": 4.2418, "savings": 1.3572, "lat": 36.4931, "lng": -84.8101, "address": "3060 Owingsville Road", "zip": "40353", "phone": "(859) 497-4041", "name": "Pilot Travel Center"}, {"site": "043", "city": "Walcott", "state": "IA", "yourPrice": 4.302, "savings": 1.097, "lat": 43.1365, "lng": -94.0505, "address": "3500 North Plainview Road", "zip": "52773", "phone": "(563) 284-4100", "name": "Pilot Travel Center"}, {"site": "044", "city": "Boonville", "state": "MO", "yourPrice": 4.2319, "savings": 0.6671, "lat": 39.4561, "lng": -92.7434, "address": "1701 Ashley Road", "zip": "65233", "phone": "(660) 882-9120", "name": "Pilot Travel Center"}, {"site": "047", "city": "Georgetown", "state": "KY", "yourPrice": 4.2368, "savings": 1.0622, "lat": 38.4931, "lng": -86.2451, "address": "259 Cherry Blossom Way", "zip": "40324", "phone": "(502) 868-7427", "name": "Pilot Travel Center"}, {"site": "048", "city": "Glendale", "state": "KY", "yourPrice": 4.2668, "savings": 1.1322, "lat": 36.5931, "lng": -85.2651, "address": "58 Glendale-Hodgenville Road", "zip": "42740", "phone": "(270) 369-7360", "name": "Pilot Travel Center"}, {"site": "049", "city": "Oak Grove", "state": "KY", "yourPrice": 4.2818, "savings": 0.9172, "lat": 36.9431, "lng": -85.4751, "address": "8190 Pembroke-Oak Grove Road", "zip": "42262", "phone": "(270) 439-1776", "name": "Pilot Travel Center"}, {"site": "050", "city": "Pendleton", "state": "KY", "yourPrice": 4.2668, "savings": 1.0922, "lat": 36.6931, "lng": -83.0251, "address": "489 Pendleton Road", "zip": "40070", "phone": "(502) 743-5496", "name": "Pilot Travel Center"}, {"site": "051", "city": "Greeneville", "state": "TN", "yourPrice": 4.2338, "savings": 1.2552, "lat": 35.8978, "lng": -85.3623, "address": "11190 Baileyton Road", "zip": "37745", "phone": "(423) 234-0414", "name": "Pilot Travel Center"}, {"site": "052", "city": "La Vergne", "state": "TN", "yourPrice": 4.2019, "savings": 1.1971, "lat": 35.5228, "lng": -85.0123, "address": "535 Waldron Road", "zip": "37086", "phone": "(615) 793-9856", "name": "Pilot Travel Center"}, {"site": "053", "city": "Hurricane Mills", "state": "TN", "yourPrice": 4.2069, "savings": 0.9921, "lat": 36.6978, "lng": -85.1873, "address": "15559 Highway 13 South", "zip": "37078", "phone": "(931) 296-7180", "name": "Pilot Travel Center"}, {"site": "056", "city": "Kannapolis", "state": "NC", "yourPrice": 4.3937, "savings": 1.2653, "lat": 34.8051, "lng": -79.8764, "address": "2825 Lane Street", "zip": "28083", "phone": "(704) 938-6800", "name": "Pilot Travel Center"}, {"site": "057", "city": "Mebane", "state": "NC", "yourPrice": 4.3667, "savings": 1.2323, "lat": 36.3051, "lng": -80.4364, "address": "1342 Trollingwood Road", "zip": "27302", "phone": "(919) 563-4999", "name": "Pilot Travel Center"}, {"site": "060", "city": "Bowman", "state": "SC", "yourPrice": 4.4698, "savings": 1.2292, "lat": 34.6819, "lng": -81.96, "address": "2064 Homestead Road", "zip": "29018", "phone": "(803) 829-3541", "name": "Pilot Travel Center"}, {"site": "062", "city": "Florence", "state": "SC", "yourPrice": 4.3187, "savings": 0.3803, "lat": 34.3569, "lng": -80.35, "address": "3006 North Williston Road", "zip": "29506", "phone": "(843) 662-6972", "name": "Pilot Travel Center"}, {"site": "063", "city": "Piedmont", "state": "SC", "yourPrice": 4.275, "savings": 1.374, "lat": 33.9569, "lng": -79.51, "address": "110 Frontage Road", "zip": "29673", "phone": "(864) 845-8177", "name": "Pilot Travel Center"}, {"site": "066", "city": "Braselton", "state": "GA", "yourPrice": 4.1344, "savings": 0.9646, "lat": 32.7906, "lng": -83.8881, "address": "5888 Highway 53", "zip": "30517", "phone": "(706) 654-2820", "name": "Pilot Travel Center"}, {"site": "067", "city": "Cartersville", "state": "GA", "yourPrice": 4.0776, "savings": 0.9214, "lat": 34.1406, "lng": -84.9381, "address": "968 Cassville-White Road", "zip": "30120", "phone": "(770) 607-7835", "name": "Pilot Travel Center"}, {"site": "068", "city": "Dublin", "state": "GA", "yourPrice": 4.1657, "savings": 1.0333, "lat": 34.1156, "lng": -83.7131, "address": "2185 US 441", "zip": "31021", "phone": "(478) 275-2143", "name": "Pilot Travel Center"}, {"site": "071", "city": "Port Wentworth", "state": "GA", "yourPrice": 4.2076, "savings": 0.8914, "lat": 32.3656, "lng": -84.4831, "address": "7001 Highway 21", "zip": "31407", "phone": "(912) 964-7006", "name": "Pilot Travel Center"}, {"site": "075", "city": "Satsuma", "state": "AL", "yourPrice": 4.3931, "savings": 0.9059, "lat": 32.1817, "lng": -86.6161, "address": "6109 US 43 South", "zip": "36572", "phone": "(251) 679-6260", "name": "Pilot Travel Center"}, {"site": "076", "city": "Tuscaloosa", "state": "AL", "yourPrice": 4.2473, "savings": 0.5517, "lat": 33.6567, "lng": -86.5811, "address": "4416 Skyland Boulevard East", "zip": "35405", "phone": "(205) 553-9710", "name": "Pilot Travel Center"}, {"site": "077", "city": "Jackson", "state": "MS", "yourPrice": 4.1897, "savings": 0.3693, "lat": 32.3916, "lng": -90.7637, "address": "2520 South Gallatin Street", "zip": "39204", "phone": "(601) 968-9491", "name": "Pilot Travel Center"}, {"site": "081", "city": "Portersville", "state": "PA", "yourPrice": 4.8447, "savings": 1.1543, "lat": 40.0408, "lng": -76.8248, "address": "2010 New Castle Road", "zip": "16051", "phone": "(724) 368-3028", "name": "Pilot Travel Center"}, {"site": "087", "city": "Jacksonville", "state": "FL", "yourPrice": 4.5183, "savings": 0.9807, "lat": 27.7663, "lng": -83.2618, "address": "1050 US 301 South", "zip": "32234", "phone": "(904) 266-4238", "name": "Pilot Travel Center"}, {"site": "090", "city": "Fort Pierce", "state": "FL", "yourPrice": 4.5692, "savings": 1.0298, "lat": 28.5413, "lng": -82.7018, "address": "7300 West Okeechobee Road", "zip": "34945", "phone": "(772) 460-0611", "name": "Pilot Travel Center"}, {"site": "091", "city": "Saint Johns", "state": "FL", "yourPrice": 4.5183, "savings": 0.9807, "lat": 27.3163, "lng": -82.1418, "address": "1625 County Road 210 West", "zip": "32259", "phone": "(904) 826-3618", "name": "Pilot Travel Center"}, {"site": "092", "city": "Ocala", "state": "FL", "yourPrice": 4.5206, "savings": 0.9384, "lat": 28.6413, "lng": -80.5668, "address": "4255 NW Highway 326", "zip": "34482", "phone": "(352) 402-9081", "name": "Pilot Travel Center"}, {"site": "094", "city": "Punta Gorda", "state": "FL", "yourPrice": 4.5281, "savings": 1.1309, "lat": 28.5913, "lng": -82.0718, "address": "26505 Jones Loop Road", "zip": "33950", "phone": "(941) 637-3974", "name": "Pilot Travel Center"}, {"site": "095", "city": "Wildwood", "state": "FL", "yourPrice": 4.5106, "savings": 0.8484, "lat": 27.0163, "lng": -81.7218, "address": "493 East State Route 44", "zip": "34785", "phone": "(352) 748-4486", "name": "Pilot Travel Center"}, {"site": "096", "city": "Okeechobee", "state": "FL", "yourPrice": 4.6315, "savings": 0.9675, "lat": 28.2413, "lng": -80.7068, "address": "3051 State Road 60", "zip": "34972", "phone": "(407) 436-1224", "name": "Pilot Travel Center"}, {"site": "097", "city": "Vandalia", "state": "OH", "yourPrice": 4.4458, "savings": 0.7132, "lat": 41.1888, "lng": -84.1299, "address": "175 Northwoods Blvd.", "zip": "45377", "phone": "(937) 264-8520", "name": "Flying J"}, {"site": "114", "city": "Crossville", "state": "TN", "yourPrice": 4.2263, "savings": 1.0727, "lat": 35.9978, "lng": -85.8173, "address": "2449 Genesis Road", "zip": "38571", "phone": "(931) 787-1901", "name": "Pilot Travel Center"}, {"site": "118", "city": "Benton", "state": "AR", "yourPrice": 4.2933, "savings": 0.7657, "lat": 33.8447, "lng": -93.7381, "address": "7801 Alcoa Road", "zip": "72015", "phone": "(501) 794-5900", "name": "Pilot Travel Center"}, {"site": "130", "city": "Richfield", "state": "OH", "yourPrice": 4.3296, "savings": 1.3694, "lat": 40.7138, "lng": -83.9899, "address": "5219 Brecksville Road", "zip": "44286", "phone": "(330) 659-2020", "name": "Pilot Travel Center"}, {"site": "131", "city": "Osceola", "state": "IA", "yourPrice": 4.2332, "savings": 0.8258, "lat": 43.1115, "lng": -93.5605, "address": "2010 West Clay Street", "zip": "50213", "phone": "(641) 342-8658", "name": "Pilot Travel Center"}, {"site": "133", "city": "Chemult", "state": "OR", "yourPrice": 4.8312, "savings": 1.6678, "lat": 43.922, "lng": -121.0559, "address": "341 Damon Street 109450 Highway 97", "zip": "97731", "phone": "(541) 365-0991", "name": "Pilot Travel Center"}, {"site": "134", "city": "St Cloud", "state": "MN", "yourPrice": 4.246, "savings": 0.483, "lat": 45.1195, "lng": -95.2652, "address": "4231 Clearwater Road", "zip": "56301", "phone": "(320) 251-8455", "name": "Pilot Travel Center"}, {"site": "137", "city": "Weed", "state": "CA", "yourPrice": 6.582, "savings": 0.517, "lat": 36.0162, "lng": -121.2916, "address": "395 E. Vista Drive", "zip": "96094", "phone": "(530) 938-9600", "name": "Pilot Travel Center"}, {"site": "141", "city": "Evanston", "state": "WY", "yourPrice": 5.0074, "savings": 0.4916, "lat": 42.481, "lng": -108.7025, "address": "289 Bear River Drive", "zip": "82930", "phone": "(307) 783-5930", "name": "Pilot Travel Center"}, {"site": "144", "city": "Augusta", "state": "GA", "yourPrice": 4.1352, "savings": 1.2238, "lat": 33.0406, "lng": -82.6631, "address": "2975 Gun Club Road", "zip": "30907", "phone": "(706) 667-6557", "name": "Pilot Travel Center"}, {"site": "145", "city": "Springdale", "state": "AR", "yourPrice": 4.2981, "savings": 0.8009, "lat": 35.2947, "lng": -93.4231, "address": "5660 West Sunset Avenue", "zip": "72762", "phone": "(479) 872-6100", "name": "Pilot Travel Center"}, {"site": "146", "city": "Castleton-On-Hudson", "state": "NY", "yourPrice": 4.6252, "savings": 1.0738, "lat": 42.7657, "lng": -76.6981, "address": "995 US Route 9", "zip": "12033", "phone": "(518) 732-7272", "name": "Pilot Travel Center"}, {"site": "147", "city": "West Wendover", "state": "NV", "yourPrice": 5.1274, "savings": 0.4316, "lat": 39.4635, "lng": -116.6004, "address": "1200 West Wendover Boulevard", "zip": "89883", "phone": "(775) 664-3400", "name": "Pilot Travel Center"}, {"site": "150", "city": "Hagerstown", "state": "MD", "yourPrice": 4.5731, "savings": 1.2859, "lat": 39.6139, "lng": -77.6071, "address": "11633 Greencastle Pike", "zip": "21740", "phone": "(301) 582-9004", "name": "Pilot Travel Center"}, {"site": "151", "city": "Olympia", "state": "WA", "yourPrice": 5.8941, "savings": 1.1049, "lat": 48.1759, "lng": -122.6455, "address": "2430 93rd Avenue SW", "zip": "98512", "phone": "(360) 754-0151", "name": "Pilot Travel Center"}, {"site": "152", "city": "Memphis", "state": "IN", "yourPrice": 4.6453, "savings": 0.9137, "lat": 39.2244, "lng": -86.5383, "address": "14013 Memphis Blue Lick Road", "zip": "47143", "phone": "(812) 294-4233", "name": "Pilot Travel Center"}, {"site": "154", "city": "Lost Hills", "state": "CA", "yourPrice": 6.3942, "savings": 0.9048, "lat": 36.4912, "lng": -120.8716, "address": "14808 Warren Street", "zip": "93249", "phone": "(661) 797-2122", "name": "Pilot Travel Center"}, {"site": "156", "city": "Mortons Gap", "state": "KY", "yourPrice": 4.2145, "savings": 1.0845, "lat": 38.8431, "lng": -83.0601, "address": "Pennyrile Parkway Exit 37", "zip": "42440", "phone": "(270) 258-5213", "name": "Pilot Travel Center"}, {"site": "157", "city": "Sulphur Springs", "state": "TX", "yourPrice": 4.1943, "savings": 1.0047, "lat": 31.7045, "lng": -97.2485, "address": "1200 South Hillcrest", "zip": "75482", "phone": "(903) 885-0020", "name": "Pilot Travel Center"}, {"site": "159", "city": "Providence Forge", "state": "VA", "yourPrice": 4.3964, "savings": 1.3026, "lat": 37.5193, "lng": -78.94, "address": "6721 Emmaus Church Road", "zip": "23140", "phone": "(804) 966-1880", "name": "Pilot Travel Center"}, {"site": "163", "city": "Lordsburg", "state": "NM", "yourPrice": 4.6724, "savings": 0.9266, "lat": 34.3405, "lng": -105.2685, "address": "1050 East Motel Drive", "zip": "88045", "phone": "(575) 542-3100", "name": "Pilot Travel Center"}, {"site": "164", "city": "Mauston", "state": "WI", "yourPrice": 4.0963, "savings": 0.6027, "lat": 43.8685, "lng": -91.1215, "address": "1101 State Road 82 East", "zip": "53948", "phone": "(608) 847-3321", "name": "Pilot Travel Center"}, {"site": "165", "city": "Effingham", "state": "IL", "yourPrice": 4.7332, "savings": 0.5658, "lat": 40.2495, "lng": -89.9661, "address": "2500 North 3rd Street", "zip": "62401", "phone": "(217) 342-3787", "name": "Pilot Travel Center"}, {"site": "167", "city": "Nevada", "state": "MO", "yourPrice": 4.2557, "savings": 0.6433, "lat": 39.6811, "lng": -93.7934, "address": "2424 East Austin Road", "zip": "64772", "phone": "(417) 667-3271", "name": "Pilot Travel Center"}, {"site": "168", "city": "Dunnigan", "state": "CA", "yourPrice": 6.3844, "savings": 0.8146, "lat": 37.2912, "lng": -118.9116, "address": "30035 County Road 8", "zip": "95937", "phone": "(530) 724-3060", "name": "Pilot Travel Center"}, {"site": "171", "city": "Oakwood", "state": "IL", "yourPrice": 4.6268, "savings": 0.8622, "lat": 40.5495, "lng": -87.6561, "address": "503 N. Oakwood Street", "zip": "61858", "phone": "(217) 354-4270", "name": "Pilot Travel Center"}, {"site": "174", "city": "New Albany", "state": "MS", "yourPrice": 4.2053, "savings": 1.0937, "lat": 33.6166, "lng": -89.7137, "address": "500 State Highway 15 South", "zip": "38652", "phone": "(662) 539-0222", "name": "Pilot Travel Center"}, {"site": "179", "city": "Hagerstown", "state": "MD", "yourPrice": 4.5681, "savings": 1.2909, "lat": 39.6139, "lng": -77.6071, "address": "16921 Halfway Boulevard", "zip": "21740", "phone": "(301) 582-6111", "name": "Pilot Travel Center"}, {"site": "180", "city": "Bellemont", "state": "AZ", "yourPrice": 4.9654, "savings": 0.7236, "lat": 33.5298, "lng": -111.1862, "address": "12500 West I-40", "zip": "86015", "phone": "(928) 773-0180", "name": "Pilot Travel Center"}, {"site": "190", "city": "Hampton", "state": "NJ", "yourPrice": 4.7586, "savings": 1.3404, "lat": 41.3489, "lng": -74.066, "address": "66 Route 173 West", "zip": "8827", "phone": "(908) 735-7711", "name": "Pilot Travel Center"}, {"site": "192", "city": "Tifton", "state": "GA", "yourPrice": 4.2255, "savings": 1.2735, "lat": 32.1906, "lng": -84.2031, "address": "4431 Old Union Road", "zip": "31794", "phone": "(229) 382-7295", "name": "Pilot Travel Center"}, {"site": "195", "city": "Wasco", "state": "OR", "yourPrice": 4.8117, "savings": 1.3473, "lat": 45.772, "lng": -121.9659, "address": "91485 Biggs Rufus Highway", "zip": "97065", "phone": "(541) 739-2174", "name": "Pilot Travel Center"}, {"site": "196", "city": "Roland", "state": "OK", "yourPrice": 4.1785, "savings": 0.8205, "lat": 35.7653, "lng": -97.4539, "address": "302 West Ray Fine Boulevard", "zip": "74954", "phone": "(918) 427-0895", "name": "Pilot Travel Center"}, {"site": "198", "city": "Plymouth", "state": "IN", "yourPrice": 4.5105, "savings": 1.1485, "lat": 39.7244, "lng": -85.5233, "address": "10619 9A Road", "zip": "46563", "phone": "(574) 936-6525", "name": "Pilot Travel Center"}, {"site": "199", "city": "Haughton", "state": "LA", "yourPrice": 4.2039, "savings": 0.6651, "lat": 31.07, "lng": -91.9378, "address": "490 North Elm Street", "zip": "71037", "phone": "(318) 390-9709", "name": "Pilot Travel Center"}, {"site": "200", "city": "Boron", "state": "CA", "yourPrice": 6.0561, "savings": 1.3429, "lat": 36.9662, "lng": -119.8566, "address": "5725 Highway 58", "zip": "93516", "phone": "(760) 762-0041", "name": "Pilot Travel Center"}, {"site": "206", "city": "Weatherford", "state": "TX", "yourPrice": 4.1907, "savings": 1.0083, "lat": 30.4795, "lng": -96.5485, "address": "1201 I-20 West", "zip": "76087", "phone": "(817) 341-4600", "name": "Pilot Travel Center"}, {"site": "208", "city": "Pacific", "state": "MO", "yourPrice": 4.3633, "savings": 0.7357, "lat": 38.9061, "lng": -93.1984, "address": "1475 Thornton Street", "zip": "63069", "phone": "(636) 257-4100", "name": "Pilot Travel Center"}, {"site": "209", "city": "Van Horn", "state": "TX", "yourPrice": 4.6396, "savings": 0.9594, "lat": 31.8045, "lng": -98.4035, "address": "501 Van Horn Drive", "zip": "79855", "phone": "(432) 283-8067", "name": "Pilot Travel Center"}, {"site": "210", "city": "Mahwah", "state": "NJ", "yourPrice": 4.7786, "savings": 1.3204, "lat": 40.2239, "lng": -75.851, "address": "230 Route 17 South", "zip": "7430", "phone": "(201) 529-2704", "name": "Pilot Travel Center"}, {"site": "211", "city": "Lake Havasu City", "state": "AZ", "yourPrice": 4.7898, "savings": 1.4692, "lat": 33.2298, "lng": -112.9362, "address": "14750 South Highway 95", "zip": "86404", "phone": "(928) 764-2410", "name": "Pilot Travel Center"}, {"site": "213", "city": "Columbus", "state": "OH", "yourPrice": 4.4165, "savings": 1.1825, "lat": 41.5638, "lng": -84.4449, "address": "3600 Interchange Road", "zip": "43204", "phone": "(614) 308-9195", "name": "Pilot Travel Center"}, {"site": "219", "city": "Knoxville", "state": "TN", "yourPrice": 4.1963, "savings": 1.4027, "lat": 34.8978, "lng": -88.3723, "address": "7210 Straw Plains Pike", "zip": "37914", "phone": "(865) 544-1067", "name": "Pilot Travel Center"}, {"site": "222", "city": "Sturbridge", "state": "MA", "yourPrice": 4.5422, "savings": 1.5568, "lat": 41.5802, "lng": -70.2701, "address": "400 Route 15 (Haynes Street)", "zip": "1566", "phone": "(508) 347-9104", "name": "Pilot Travel Center"}, {"site": "231", "city": "Corbin", "state": "KY", "yourPrice": 4.2693, "savings": 1.3297, "lat": 37.2931, "lng": -84.7751, "address": "249 West Cumberland Gap Parkway", "zip": "40701", "phone": "(606) 528-0631", "name": "Pilot Travel Center"}, {"site": "233", "city": "Oakland", "state": "OR", "yourPrice": 4.7762, "savings": 1.7228, "lat": 44.222, "lng": -123.3659, "address": "800 John Long Road", "zip": "97462", "phone": "(541) 849-2133", "name": "Pilot Travel Center"}, {"site": "234", "city": "Huntsville", "state": "TX", "yourPrice": 4.2651, "savings": 0.8339, "lat": 31.0795, "lng": -99.2435, "address": "639 State Highway 75 North", "zip": "77320", "phone": "(936) 291-1125", "name": "Pilot Travel Center"}, {"site": "236", "city": "Minooka", "state": "IL", "yourPrice": 4.6006, "savings": 0.7984, "lat": 41.4745, "lng": -88.2511, "address": "301 Ridge Road", "zip": "60447", "phone": "(815) 467-4416", "name": "Pilot Travel Center"}, {"site": "237", "city": "Salinas", "state": "CA", "yourPrice": 6.5102, "savings": 1.0888, "lat": 35.1662, "lng": -119.4716, "address": "951 Work Street", "zip": "93901", "phone": "(831) 775-0380", "name": "Pilot Travel Center"}, {"site": "238", "city": "Percival", "state": "IA", "yourPrice": 4.261, "savings": 0.898, "lat": 42.6615, "lng": -94.0855, "address": "2495 210th Avenue", "zip": "51648", "phone": "(712) 382-2224", "name": "Pilot Travel Center"}, {"site": "239", "city": "Upper Sandusky", "state": "OH", "yourPrice": 4.3875, "savings": 1.1715, "lat": 40.0388, "lng": -84.3049, "address": "1600 East Wyandot Avenue", "zip": "43351", "phone": "(419) 294-2971", "name": "Pilot Travel Center"}, {"site": "242", "city": "Shelbyville", "state": "IN", "yourPrice": 4.5799, "savings": 0.9791, "lat": 40.6744, "lng": -86.7483, "address": "1851 West 400 North", "zip": "46176", "phone": "(317) 392-8771", "name": "Pilot Travel Center"}, {"site": "243", "city": "Nitro", "state": "WV", "yourPrice": 4.3526, "savings": 1.1464, "lat": 38.6162, "lng": -81.3745, "address": "4304 First Avenue", "zip": "25143", "phone": "(304) 755-8654", "name": "Pilot Travel Center"}, {"site": "247", "city": "Crawfordsville", "state": "IN", "yourPrice": 4.5749, "savings": 1.0241, "lat": 38.6244, "lng": -85.5233, "address": "4403 East State Route 32", "zip": "47933", "phone": "(765) 361-9603", "name": "Pilot Travel Center"}, {"site": "249", "city": "Troy", "state": "IL", "yourPrice": 4.963, "savings": 0.296, "lat": 40.5245, "lng": -87.7961, "address": "820 Edwardsville Road", "zip": "62294", "phone": "(618) 667-0946", "name": "Pilot Travel Center"}, {"site": "252", "city": "Kearney", "state": "MO", "yourPrice": 4.1859, "savings": 0.8731, "lat": 39.4561, "lng": -91.7284, "address": "600 West SR 92", "zip": "64060", "phone": "(816) 635-4015", "name": "Pilot Travel Center"}, {"site": "253", "city": "Carneys Point", "state": "NJ", "yourPrice": 4.8855, "savings": 0.5135, "lat": 40.5239, "lng": -76.166, "address": "600 Pennsville-Auburn Road", "zip": "8069", "phone": "(856) 299-5700", "name": "Pilot Travel Center"}, {"site": "255", "city": "Milford", "state": "CT", "yourPrice": 4.6801, "savings": 1.3189, "lat": 42.3978, "lng": -74.5054, "address": "433 Old Gate Lane", "zip": "6460", "phone": "(203) 876-1266", "name": "Pilot Travel Center"}, {"site": "256", "city": "Danville", "state": "VA", "yourPrice": 4.4137, "savings": 1.5853, "lat": 38.3193, "lng": -76.77, "address": "110 River Point Drive", "zip": "24541", "phone": "(434) 792-1180", "name": "Pilot Travel Center"}, {"site": "257", "city": "Midland", "state": "TX", "yourPrice": 4.3489, "savings": 0.9501, "lat": 31.3795, "lng": -98.8585, "address": "4015 South FM 1788", "zip": "79706", "phone": "(432) 563-1683", "name": "Pilot Travel Center"}, {"site": "259", "city": "Muskogee", "state": "OK", "yourPrice": 4.0538, "savings": 0.7452, "lat": 35.2153, "lng": -96.3339, "address": "3000 North 32nd Street", "zip": "74401", "phone": "(918) 686-7856", "name": "Pilot Travel Center"}, {"site": "260", "city": "Albany", "state": "GA", "yourPrice": 4.213, "savings": 1.286, "lat": 34.2656, "lng": -83.1181, "address": "310 Cordele Road", "zip": "31705", "phone": "(229) 878-1355", "name": "Pilot Travel Center"}, {"site": "261", "city": "Winona", "state": "MS", "yourPrice": 4.2924, "savings": 1.0066, "lat": 33.8416, "lng": -89.1887, "address": "403 SW Frontage Road", "zip": "38967", "phone": "(662) 283-5985", "name": "Pilot Travel Center"}, {"site": "266", "city": "Las Cruces", "state": "NM", "yourPrice": 4.6074, "savings": 0.9916, "lat": 35.2905, "lng": -105.4085, "address": "2681 West Amador", "zip": "88005", "phone": "(575) 523-2700", "name": "Pilot Travel Center"}, {"site": "267", "city": "Byron", "state": "GA", "yourPrice": 4.1707, "savings": 0.8883, "lat": 33.1656, "lng": -83.1881, "address": "2965 Highway 247C", "zip": "31008", "phone": "(478) 956-5316", "name": "Pilot Travel Center"}, {"site": "268", "city": "Walcott", "state": "IA", "yourPrice": 4.302, "savings": 1.097, "lat": 43.1365, "lng": -94.0505, "address": "2975 North Plainview Road", "zip": "52773", "phone": "(563) 284-5074", "name": "Pilot Travel Center"}, {"site": "270", "city": "Knoxville", "state": "TN", "yourPrice": 4.1963, "savings": 0.9627, "lat": 34.8978, "lng": -88.3723, "address": "314 Lovell Road", "zip": "37922", "phone": "(865) 966-0445", "name": "Pilot Travel Center"}, {"site": "271", "city": "Gary", "state": "IN", "yourPrice": 4.352, "savings": 1.027, "lat": 38.7244, "lng": -84.7883, "address": "2501 Burr Street", "zip": "46406", "phone": "(219) 844-2661", "name": "Pilot Travel Center"}, {"site": "274", "city": "Breaux Bridge", "state": "LA", "yourPrice": 4.1213, "savings": 1.0477, "lat": 32.195, "lng": -93.3028, "address": "2112 Rees Street", "zip": "70517", "phone": "(337) 332-1253", "name": "Pilot Travel Center"}, {"site": "275", "city": "Charlotte", "state": "NC", "yourPrice": 4.3937, "savings": 1.2053, "lat": 35.1801, "lng": -80.2614, "address": "3807 Statesville Avenue", "zip": "28206", "phone": "(704) 358-1006", "name": "Pilot Travel Center"}, {"site": "279", "city": "Rio Rico", "state": "AZ", "yourPrice": 5.0708, "savings": 0.9282, "lat": 34.2048, "lng": -110.7662, "address": "769 East Frontage Road", "zip": "85648", "phone": "(520) 377-0001", "name": "Pilot Travel Center"}, {"site": "280", "city": "Bloomsbury", "state": "NJ", "yourPrice": 4.7586, "savings": 1.2404, "lat": 40.4239, "lng": -75.326, "address": "979 Route 173", "zip": "8804", "phone": "(908) 479-6443", "name": "Pilot Travel Center"}, {"site": "281", "city": "Girard", "state": "OH", "yourPrice": 4.3474, "savings": 1.0516, "lat": 39.5638, "lng": -84.0249, "address": "2786 Salt Springs Road", "zip": "44420", "phone": "(330) 530-8500", "name": "Pilot Travel Center"}, {"site": "282", "city": "Barstow", "state": "CA", "yourPrice": 6.0653, "savings": 1.1337, "lat": 37.1912, "lng": -118.1766, "address": "2591 Commerce Parkway", "zip": "92311", "phone": "(760) 253-2861", "name": "Pilot Travel Center"}, {"site": "284", "city": "Monroe", "state": "MI", "yourPrice": 4.3859, "savings": 0.8131, "lat": 42.8266, "lng": -83.9761, "address": "1200 Nadeau Road", "zip": "48161", "phone": "(734) 457-3500", "name": "Pilot Travel Center"}, {"site": "285", "city": "Hebron", "state": "OH", "yourPrice": 4.424, "savings": 1.135, "lat": 40.3138, "lng": -83.5349, "address": "10258 Lancaster Road SW", "zip": "43025", "phone": "(740) 928-5588", "name": "Pilot Travel Center"}, {"site": "286", "city": "Eaton", "state": "OH", "yourPrice": 4.4533, "savings": 1.0457, "lat": 39.3388, "lng": -81.9249, "address": "6141 US 127 North", "zip": "45320", "phone": "(937) 456-6303", "name": "Pilot Travel Center"}, {"site": "287", "city": "Burbank", "state": "OH", "yourPrice": 4.3421, "savings": 0.9569, "lat": 40.1388, "lng": -83.8849, "address": "10048 Avon Lake Road", "zip": "44214", "phone": "(330) 948-4571", "name": "Pilot Travel Center"}, {"site": "289", "city": "Beloit", "state": "WI", "yourPrice": 4.1074, "savings": 1.3916, "lat": 44.6185, "lng": -90.9115, "address": "3001 Milwaukee Road", "zip": "53511", "phone": "(608) 364-3644", "name": "Pilot Travel Center"}, {"site": "293", "city": "Ocala", "state": "FL", "yourPrice": 4.5701, "savings": 0.8889, "lat": 28.6413, "lng": -80.5668, "address": "2020 SW 135th Street", "zip": "34473", "phone": "(352) 347-8555", "name": "Pilot Travel Center"}, {"site": "296", "city": "Dexter", "state": "MI", "yourPrice": 4.3834, "savings": 0.8756, "lat": 43.4016, "lng": -83.8011, "address": "195 Baker Road", "zip": "48130", "phone": "(734) 426-0065", "name": "Pilot Travel Center"}, {"site": "298", "city": "Drums", "state": "PA", "yourPrice": 4.9209, "savings": 1.0781, "lat": 39.6658, "lng": -78.0848, "address": "SR 93 Box 1114", "zip": "18222", "phone": "(570) 788-3262", "name": "Pilot Travel Center"}, {"site": "299", "city": "Bloomington", "state": "IL", "yourPrice": 4.7976, "savings": 0.4614, "lat": 39.4495, "lng": -89.7561, "address": "1522 West Market Street", "zip": "61701", "phone": "(309) 827-7867", "name": "Pilot Travel Center"}, {"site": "300", "city": "Hammond", "state": "LA", "yourPrice": 4.1206, "savings": 1.0784, "lat": 30.295, "lng": -93.0228, "address": "2111 SW Railroad Avenue", "zip": "70403", "phone": "(985) 345-5476", "name": "Pilot Travel Center"}, {"site": "302", "city": "Theodore", "state": "AL", "yourPrice": 4.3481, "savings": 0.8509, "lat": 32.8817, "lng": -85.9161, "address": "6955 Theodore Dawes Road", "zip": "36582", "phone": "(251) 653-8834", "name": "Pilot Travel Center"}, {"site": "303", "city": "Napoleon", "state": "OH", "yourPrice": 4.3161, "savings": 1.0029, "lat": 41.1138, "lng": -82.5549, "address": "905 American Road Route 24", "zip": "43545", "phone": "(419) 599-0043", "name": "Pilot Travel Center"}, {"site": "304", "city": "New Haven", "state": "IN", "yourPrice": 4.5487, "savings": 0.6503, "lat": 40.1244, "lng": -87.6583, "address": "3105 Doyle Road", "zip": "46774", "phone": "(260) 493-4035", "name": "Flying J"}, {"site": "305", "city": "Jamestown", "state": "NM", "yourPrice": 4.8578, "savings": 0.4412, "lat": 35.3655, "lng": -105.0935, "address": "I-40 Exit 39 - PO Box 960 1 Giant Crossing I-40 Exit 39", "zip": "87347", "phone": "(505) 722-6655", "name": "Pilot Travel Center"}, {"site": "306", "city": "San Antonio", "state": "TX", "yourPrice": 4.127, "savings": 1.172, "lat": 31.0545, "lng": -96.7235, "address": "5619 I-10 East", "zip": "78219", "phone": "(210) 661-5353", "name": "Pilot Travel Center"}, {"site": "307", "city": "North Palm Springs", "state": "CA", "yourPrice": 6.1172, "savings": 1.0818, "lat": 35.3162, "lng": -119.8216, "address": "6605 N. Indian Canyon Drive PO Box 581236", "zip": "92258", "phone": "(760) 329-5562", "name": "Pilot Travel Center"}, {"site": "308", "city": "Laramie", "state": "WY", "yourPrice": 4.4001, "savings": 0.6989, "lat": 41.981, "lng": -105.9375, "address": "1564 McCue Street", "zip": "82072", "phone": "(307) 742-6443", "name": "Pilot Travel Center"}, {"site": "309", "city": "Caldwell", "state": "OH", "yourPrice": 4.402, "savings": 1.157, "lat": 41.0388, "lng": -82.0999, "address": "44133 Fairground Road", "zip": "43724", "phone": "(740) 732-5656", "name": "Pilot Travel Center"}, {"site": "310", "city": "Duncan", "state": "SC", "yourPrice": 4.2697, "savings": 1.4293, "lat": 34.7069, "lng": -80.385, "address": "1405 East Main Street", "zip": "29334", "phone": "(864) 433-1221", "name": "Pilot Travel Center"}, {"site": "311", "city": "Erie", "state": "PA", "yourPrice": 4.6768, "savings": 1.2822, "lat": 40.5908, "lng": -75.8448, "address": "8035 Perry Highway", "zip": "16509", "phone": "(814) 864-8536", "name": "Pilot Travel Center"}, {"site": "312", "city": "Tallapoosa", "state": "GA", "yourPrice": 4.0826, "savings": 1.0464, "lat": 33.1656, "lng": -82.1731, "address": "882 Georgia Highway 100", "zip": "30176", "phone": "(770) 574-9922", "name": "Pilot Travel Center"}, {"site": "313", "city": "East St Louis", "state": "IL", "yourPrice": 4.8911, "savings": 0.3679, "lat": 39.2495, "lng": -90.0011, "address": "699 State Route 203", "zip": "62201", "phone": "(618) 875-5800", "name": "Pilot Travel Center"}, {"site": "317", "city": "Joplin", "state": "MO", "yourPrice": 4.2282, "savings": 0.7708, "lat": 38.9311, "lng": -93.4434, "address": "4500 Highway 43 South", "zip": "64804", "phone": "(417) 781-0255", "name": "Pilot Travel Center"}, {"site": "321", "city": "Walton", "state": "KY", "yourPrice": 4.1838, "savings": 1.1152, "lat": 36.8681, "lng": -83.1301, "address": "11229 Frontage Road", "zip": "41094", "phone": "(859) 485-1327", "name": "Pilot Travel Center"}, {"site": "322", "city": "Bath", "state": "NY", "yourPrice": 4.6777, "savings": 1.3213, "lat": 41.6157, "lng": -74.8781, "address": "7767 State Route 53", "zip": "14810", "phone": "(607) 776-2012", "name": "Pilot Travel Center"}, {"site": "324", "city": "Franksville", "state": "WI", "yourPrice": 4.0981, "savings": 0.9609, "lat": 43.4185, "lng": -89.7565, "address": "13712 Northwestern Avenue", "zip": "53126", "phone": "(262) 835-2292", "name": "Pilot Travel Center"}, {"site": "328", "city": "Quartzsite", "state": "AZ", "yourPrice": 4.9404, "savings": 0.9586, "lat": 32.9798, "lng": -112.9362, "address": "1201 West Main Street", "zip": "85359", "phone": "(928) 927-7777", "name": "Pilot Travel Center"}, {"site": "329", "city": "Council Bluffs", "state": "IA", "yourPrice": 4.2585, "savings": 0.9005, "lat": 40.9115, "lng": -93.2105, "address": "2647 South 24th Street", "zip": "51501", "phone": "(712) 322-0088", "name": "Pilot Travel Center"}, {"site": "330", "city": "New Braunfels", "state": "TX", "yourPrice": 4.142, "savings": 1.057, "lat": 31.2295, "lng": -98.8235, "address": "4142 Loop 337", "zip": "78132", "phone": "(830) 629-1424", "name": "Pilot Travel Center"}, {"site": "331", "city": "Atlanta", "state": "GA", "yourPrice": 4.1176, "savings": 1.3414, "lat": 33.1656, "lng": -82.2431, "address": "2605 Bouldercrest", "zip": "30316", "phone": "(404) 212-8733", "name": "Pilot Travel Center"}, {"site": "332", "city": "North Little Rock", "state": "AR", "yourPrice": 4.2983, "savings": 0.6807, "lat": 35.9447, "lng": -91.6031, "address": "3300 Highway 391 North", "zip": "72117", "phone": "(501) 945-2226", "name": "Pilot Travel Center"}, {"site": "335", "city": "Rayville", "state": "LA", "yourPrice": 4.2149, "savings": 0.6541, "lat": 30.27, "lng": -92.1128, "address": "103 Grimshaw Street", "zip": "71269", "phone": "(318) 728-4100", "name": "Pilot Travel Center"}, {"site": "336", "city": "Dubois", "state": "PA", "yourPrice": 4.9456, "savings": 1.0534, "lat": 40.6658, "lng": -77.1048, "address": "1742 Rich Highway", "zip": "15801", "phone": "(814) 375-6046", "name": "Pilot Travel Center"}, {"site": "337", "city": "Florence", "state": "SC", "yourPrice": 4.3187, "savings": 0.3803, "lat": 34.3569, "lng": -80.35, "address": "2015 West Lucas Street", "zip": "29501", "phone": "(843) 662-2646", "name": "Pilot Travel Center"}, {"site": "338", "city": "West Columbia", "state": "SC", "yourPrice": 4.3627, "savings": 1.3363, "lat": 34.2319, "lng": -80.385, "address": "3008 Highway 321", "zip": "29033", "phone": "(803) 739-2921", "name": "Pilot Travel Center"}, {"site": "340", "city": "Fernley", "state": "NV", "yourPrice": 5.2485, "savings": 0.9505, "lat": 37.2135, "lng": -118.7004, "address": "465 Pilot Road", "zip": "89408", "phone": "(775) 575-5115", "name": "Pilot Travel Center"}, {"site": "341", "city": "North Las Vegas", "state": "NV", "yourPrice": 4.9347, "savings": 0.6643, "lat": 38.6135, "lng": -116.8104, "address": "3812 East Craig Road", "zip": "89031", "phone": "(702) 644-1600", "name": "Pilot Travel Center"}, {"site": "343", "city": "San Diego", "state": "CA", "yourPrice": 6.0731, "savings": 1.6259, "lat": 36.2162, "lng": -120.8366, "address": "1497 Piper Ranch Road", "zip": "92154", "phone": "(619) 661-9558", "name": "Pilot Travel Center"}, {"site": "346", "city": "Lugoff", "state": "SC", "yourPrice": 4.3727, "savings": 1.2163, "lat": 32.8569, "lng": -81.295, "address": "522 Highway 601 South", "zip": "29078", "phone": "(803) 438-5175", "name": "Pilot Travel Center"}, {"site": "348", "city": "Bentleyville", "state": "PA", "yourPrice": 4.8372, "savings": 1.0618, "lat": 39.5408, "lng": -77.9448, "address": "205 Wilson Road", "zip": "15314", "phone": "(724) 239-5855", "name": "Pilot Travel Center"}, {"site": "350", "city": "Mountain Home", "state": "ID", "yourPrice": 5.1877, "savings": 0.4113, "lat": 44.8905, "lng": -116.1588, "address": "1050 Highway 20", "zip": "83647", "phone": "(208) 587-4465", "name": "Pilot Travel Center"}, {"site": "352", "city": "Fort Myers", "state": "FL", "yourPrice": 4.5306, "savings": 1.1284, "lat": 28.7413, "lng": -80.0418, "address": "6050 Plaza Drive", "zip": "33905", "phone": "(239) 693-6868", "name": "Pilot Travel Center"}, {"site": "353", "city": "Georgetown", "state": "KY", "yourPrice": 4.2368, "savings": 1.0622, "lat": 38.4931, "lng": -86.2451, "address": "110 Triport Road", "zip": "40324", "phone": "(502) 863-2708", "name": "Pilot Travel Center"}, {"site": "354", "city": "Simpsonville", "state": "KY", "yourPrice": 4.2568, "savings": 1.1422, "lat": 36.6931, "lng": -83.2351, "address": "819 Buck Creek Road", "zip": "40067", "phone": "(502) 722-5636", "name": "Pilot Travel Center"}, {"site": "356", "city": "Shepherdsville", "state": "KY", "yourPrice": 4.2418, "savings": 1.1572, "lat": 36.5681, "lng": -83.5501, "address": "2050 East Blue Lick Road", "zip": "40165", "phone": "(502) 955-5049", "name": "Pilot Travel Center"}, {"site": "358", "city": "Paducah", "state": "KY", "yourPrice": 4.1995, "savings": 1.0995, "lat": 37.4681, "lng": -85.1951, "address": "5353 Cairo Road", "zip": "42001", "phone": "(270) 443-2044", "name": "Pilot Travel Center"}, {"site": "360", "city": "Findlay", "state": "OH", "yourPrice": 4.371, "savings": 0.628, "lat": 41.6138, "lng": -83.8149, "address": "11471 State Route 613W", "zip": "45840", "phone": "(419) 299-3381", "name": "Pilot Travel Center"}, {"site": "365", "city": "Madera", "state": "CA", "yourPrice": 6.3427, "savings": 0.8163, "lat": 36.0162, "lng": -121.3966, "address": "22717 Avenue 18 1/2", "zip": "93637", "phone": "(559) 673-3878", "name": "Pilot Travel Center"}, {"site": "366", "city": "Jackson", "state": "TN", "yourPrice": 4.2698, "savings": 1.2292, "lat": 36.6478, "lng": -85.3973, "address": "30 Sand Pebble Road", "zip": "38305", "phone": "(731) 422-5545", "name": "Pilot Travel Center"}, {"site": "367", "city": "Caddo Mills", "state": "TX", "yourPrice": 4.1932, "savings": 1.0058, "lat": 30.8795, "lng": -97.2835, "address": "2226 FM-1903 I-30 & FM 1903 Exit 87", "zip": "75135", "phone": "(903) 527-2150", "name": "Pilot Travel Center"}, {"site": "368", "city": "Decatur", "state": "IL", "yourPrice": 4.7312, "savings": 0.5678, "lat": 40.1745, "lng": -89.3011, "address": "4030 East Boyd Road", "zip": "62521", "phone": "(217) 876-0208", "name": "Pilot Travel Center"}, {"site": "370", "city": "Pittston", "state": "PA", "yourPrice": 4.9134, "savings": 1.1856, "lat": 40.2658, "lng": -75.9148, "address": "417 Route 315", "zip": "18640", "phone": "(570) 655-4116", "name": "Pilot Travel Center"}, {"site": "372", "city": "Castaic", "state": "CA", "yourPrice": 6.2159, "savings": 1.1831, "lat": 35.1412, "lng": -120.9416, "address": "31642 Castaic Road", "zip": "91384", "phone": "(661) 257-2800", "name": "Pilot Travel Center"}, {"site": "373", "city": "Urbandale", "state": "IA", "yourPrice": 4.2007, "savings": 0.8583, "lat": 43.0115, "lng": -94.0855, "address": "11957 Douglas Avenue", "zip": "50322", "phone": "(515) 276-1509", "name": "Pilot Travel Center"}, {"site": "374", "city": "Marianna", "state": "FL", "yourPrice": 4.4892, "savings": 0.8698, "lat": 26.6413, "lng": -81.7218, "address": "2209 Highway 71", "zip": "32448", "phone": "(850) 482-2148", "name": "Pilot Travel Center"}, {"site": "375", "city": "Houston", "state": "TX", "yourPrice": 4.2176, "savings": 0.6814, "lat": 31.6795, "lng": -97.7035, "address": "4440 North McCarty Street", "zip": "77013", "phone": "(713) 675-3375", "name": "Pilot Travel Center"}, {"site": "377", "city": "Laredo", "state": "TX", "yourPrice": 4.4418, "savings": 0.9572, "lat": 31.3295, "lng": -96.0935, "address": "1101 Uniroyal Drive", "zip": "78045", "phone": "(956) 717-5006", "name": "Pilot Travel Center"}, {"site": "380", "city": "Liverpool", "state": "NY", "yourPrice": 4.7245, "savings": 1.0145, "lat": 42.3657, "lng": -74.5281, "address": "107 Seventh North Street", "zip": "13088", "phone": "(315) 424-0124", "name": "Pilot Travel Center"}, {"site": "381", "city": "Hesperia", "state": "CA", "yourPrice": 6.0277, "savings": 1.1713, "lat": 35.8662, "lng": -120.0316, "address": "8701 Highway 395", "zip": "92345", "phone": "(760) 956-2844", "name": "Pilot Travel Center"}, {"site": "384", "city": "Colonial Heights", "state": "VA", "yourPrice": 4.4064, "savings": 1.3926, "lat": 36.7443, "lng": -79.325, "address": "2126 Ruffin Mill Road", "zip": "23834", "phone": "(804) 524-9556", "name": "Pilot Travel Center"}, {"site": "385", "city": "Collins", "state": "MO", "yourPrice": 4.325, "savings": 0.574, "lat": 39.6061, "lng": -90.9934, "address": "Hwy 13 South and US 54", "zip": "64738", "phone": "(417) 275-4796", "name": "Pilot Travel Center"}, {"site": "386", "city": "Salem", "state": "OR", "yourPrice": 4.7967, "savings": 1.6623, "lat": 45.122, "lng": -121.0909, "address": "4220 Brooklake Road", "zip": "97305", "phone": "(503) 463-1114", "name": "Pilot Travel Center"}, {"site": "388", "city": "Meridian", "state": "MS", "yourPrice": 4.155, "savings": 1.004, "lat": 32.4916, "lng": -88.7337, "address": "1555 Tommy Webb Drive", "zip": "39307", "phone": "(601) 484-5106", "name": "Pilot Travel Center"}, {"site": "390", "city": "Stanfield", "state": "OR", "yourPrice": 4.8792, "savings": 1.1798, "lat": 45.297, "lng": -121.4409, "address": "2115 Highway 395", "zip": "97875", "phone": "(541) 449-1403", "name": "Pilot Travel Center"}, {"site": "391", "city": "Central Point", "state": "OR", "yourPrice": 4.8362, "savings": 1.6628, "lat": 44.197, "lng": -122.9459, "address": "1600 East Pine Street", "zip": "97502", "phone": "(541) 664-7001", "name": "Pilot Travel Center"}, {"site": "393", "city": "Waynesville", "state": "NC", "yourPrice": 4.4347, "savings": 1.2243, "lat": 36.6551, "lng": -79.2114, "address": "3712 Crabtree Road", "zip": "28786", "phone": "(828) 627-8611", "name": "Pilot Travel Center"}, {"site": "394", "city": "Newburgh", "state": "NY", "yourPrice": 4.8063, "savings": 1.2927, "lat": 41.2657, "lng": -74.3181, "address": "239 Route 17K", "zip": "12550", "phone": "(845) 567-1722", "name": "Pilot Travel Center"}, {"site": "396", "city": "Staunton", "state": "VA", "yourPrice": 4.4107, "savings": 1.2883, "lat": 38.0943, "lng": -79.605, "address": "3541 Lee Jackson Highway", "zip": "24401", "phone": "(540) 324-0714", "name": "Pilot Travel Center"}, {"site": "399", "city": "Lebanon Junction", "state": "KY", "yourPrice": 4.2518, "savings": 1.1472, "lat": 36.5681, "lng": -85.3001, "address": "150 Park Plaza Boulevard", "zip": "40150", "phone": "(502) 833-2727", "name": "Pilot Travel Center"}, {"site": "402", "city": "Cheyenne", "state": "WY", "yourPrice": 4.4026, "savings": 0.6964, "lat": 43.281, "lng": -108.3175, "address": "8020 Campstool Road", "zip": "82007", "phone": "(307) 635-5744", "name": "Pilot Travel Center"}, {"site": "404", "city": "Murfreesboro", "state": "TN", "yourPrice": 4.2019, "savings": 1.1971, "lat": 35.2478, "lng": -85.9573, "address": "2441 South Church Street", "zip": "37127", "phone": "(615) 907-9595", "name": "Pilot Travel Center"}, {"site": "406", "city": "Cornersville", "state": "TN", "yourPrice": 4.1869, "savings": 1.1421, "lat": 35.0478, "lng": -86.0623, "address": "9211 Lewisburg Highway", "zip": "37047", "phone": "(931) 363-3290", "name": "Pilot Travel Center"}, {"site": "407", "city": "Clear Lake", "state": "IA", "yourPrice": 4.2452, "savings": 0.9538, "lat": 42.6865, "lng": -94.1205, "address": "2411 US Highway 18 East", "zip": "50428", "phone": "(641) 357-3124", "name": "Pilot Travel Center"}, {"site": "408", "city": "Grantsville", "state": "MD", "yourPrice": 4.6714, "savings": 1.6276, "lat": 37.9639, "lng": -77.5721, "address": "3000 Chestnut Ridge Road", "zip": "21536", "phone": "(301) 895-4536", "name": "Pilot Travel Center"}, {"site": "409", "city": "Dickson", "state": "TN", "yourPrice": 4.1994, "savings": 0.9996, "lat": 35.4228, "lng": -85.6073, "address": "2320 Highway 46 South", "zip": "37055", "phone": "(615) 446-4600", "name": "Pilot Travel Center"}, {"site": "411", "city": "Lebanon", "state": "TN", "yourPrice": 4.2144, "savings": 1.0846, "lat": 35.4978, "lng": -86.6223, "address": "921 Murfreesboro", "zip": "37090", "phone": "(615) 453-8866", "name": "Pilot Travel Center"}, {"site": "412", "city": "White Pine", "state": "TN", "yourPrice": 4.2263, "savings": 1.3727, "lat": 36.3478, "lng": -87.5323, "address": "3624 Roy Messer Highway", "zip": "37890", "phone": "(865) 674-8570", "name": "Pilot Travel Center"}, {"site": "415", "city": "Rising Fawn", "state": "GA", "yourPrice": 4.032, "savings": 1.467, "lat": 33.2156, "lng": -82.6981, "address": "319 Deer Head Cover Road", "zip": "30738", "phone": "(706) 462-2455", "name": "Pilot Travel Center"}, {"site": "416", "city": "Cordele", "state": "GA", "yourPrice": 4.2255, "savings": 0.9735, "lat": 33.4406, "lng": -84.9381, "address": "2201 East 16 Avenue", "zip": "31015", "phone": "(229) 271-5775", "name": "Pilot Travel Center"}, {"site": "417", "city": "Temple", "state": "GA", "yourPrice": 4.0801, "savings": 1.0489, "lat": 33.7656, "lng": -83.1181, "address": "625 Carrollton Street", "zip": "30179", "phone": "(770) 562-9773", "name": "Pilot Travel Center"}, {"site": "420", "city": "Madison", "state": "GA", "yourPrice": 4.1494, "savings": 1.2496, "lat": 32.6656, "lng": -83.4331, "address": "1881 Eatonton Road", "zip": "30650", "phone": "(706) 343-1455", "name": "Pilot Travel Center"}, {"site": "421", "city": "Dalton", "state": "GA", "yourPrice": 4.027, "savings": 1.072, "lat": 32.5156, "lng": -83.8881, "address": "142 Carbondale Road", "zip": "30721", "phone": "(706) 370-4060", "name": "Pilot Travel Center"}, {"site": "422", "city": "Newnan", "state": "GA", "yourPrice": 4.1176, "savings": 1.2414, "lat": 32.5406, "lng": -83.5031, "address": "1645 South Highway 29", "zip": "30263", "phone": "(770) 252-3551", "name": "Pilot Travel Center"}, {"site": "424", "city": "Ocala", "state": "FL", "yourPrice": 4.5701, "savings": 0.8889, "lat": 28.6413, "lng": -80.5668, "address": "4032 West Highway 326", "zip": "34482", "phone": "(352) 867-8300", "name": "Pilot Travel Center"}, {"site": "425", "city": "Midway", "state": "FL", "yourPrice": 4.5242, "savings": 0.8348, "lat": 28.6663, "lng": -81.1618, "address": "33333 Blue Star Highway", "zip": "32343", "phone": "(850) 576-3200", "name": "Pilot Travel Center"}, {"site": "428", "city": "West Monroe", "state": "LA", "yourPrice": 4.2249, "savings": 0.6441, "lat": 31.295, "lng": -91.9378, "address": "300 Well Road", "zip": "71292", "phone": "(318) 329-3590", "name": "Pilot Travel Center"}, {"site": "429", "city": "West Memphis", "state": "AR", "yourPrice": 4.2318, "savings": 0.8672, "lat": 36.0697, "lng": -92.4431, "address": "1100 Martin Luther King Boulevard", "zip": "72301", "phone": "(870) 732-1202", "name": "Pilot Travel Center"}, {"site": "430", "city": "Russellville", "state": "AR", "yourPrice": 4.3208, "savings": 0.6582, "lat": 34.6947, "lng": -91.0431, "address": "215 SR 331 North", "zip": "72802", "phone": "(479) 967-7414", "name": "Pilot Travel Center"}, {"site": "431", "city": "Orange", "state": "TX", "yourPrice": 4.1346, "savings": 1.1644, "lat": 30.3795, "lng": -96.8985, "address": "2205 North Highway 62", "zip": "77630", "phone": "(409) 745-1124", "name": "Pilot Travel Center"}, {"site": "432", "city": "Waco", "state": "TX", "yourPrice": 4.1989, "savings": 1.0001, "lat": 32.1545, "lng": -97.0735, "address": "8055 South I-35", "zip": "76706", "phone": "(254) 662-4771", "name": "Pilot Travel Center"}, {"site": "433", "city": "Dallas", "state": "TX", "yourPrice": 4.1782, "savings": 1.0208, "lat": 31.6545, "lng": -97.7735, "address": "8787 South Lancaster Road", "zip": "75241", "phone": "(972) 228-2467", "name": "Pilot Travel Center"}, {"site": "434", "city": "Fort Worth", "state": "TX", "yourPrice": 4.2132, "savings": 0.9858, "lat": 32.0545, "lng": -97.3535, "address": "2400 Alliance Gateway", "zip": "76177", "phone": "(817) 337-5324", "name": "Pilot Travel Center"}, {"site": "435", "city": "Anthony", "state": "TX", "yourPrice": 4.5671, "savings": 0.6919, "lat": 31.5295, "lng": -98.1935, "address": "2015 Antonio Street", "zip": "79821", "phone": "(915) 886-3090", "name": "Pilot Travel Center"}, {"site": "436", "city": "Amarillo", "state": "TX", "yourPrice": 4.2633, "savings": 0.6357, "lat": 30.4795, "lng": -96.8985, "address": "715 South Lakeside Drive", "zip": "79118", "phone": "(806) 335-3323", "name": "Pilot Travel Center"}, {"site": "437", "city": "Williamsburg", "state": "KY", "yourPrice": 4.2693, "savings": 1.3297, "lat": 37.5431, "lng": -83.4451, "address": "481 West Highway 92", "zip": "40769", "phone": "(606) 549-0162", "name": "Pilot Travel Center"}, {"site": "438", "city": "Franklin", "state": "KY", "yourPrice": 4.2693, "savings": 0.9297, "lat": 37.0681, "lng": -85.7551, "address": "2940 Scottsville Road Highway 100 & I-65 Exit 6", "zip": "42134", "phone": "(270) 586-9544", "name": "Pilot Travel Center"}, {"site": "439", "city": "Oak Grove", "state": "KY", "yourPrice": 4.2818, "savings": 0.9172, "lat": 36.9431, "lng": -85.4751, "address": "12900 Fort Campbell Boulevard", "zip": "42262", "phone": "(270) 439-0153", "name": "Pilot Travel Center"}, {"site": "440", "city": "Pendleton", "state": "KY", "yourPrice": 4.2668, "savings": 1.0922, "lat": 36.6931, "lng": -83.0251, "address": "205 Pendleton Road", "zip": "40055", "phone": "(502) 743-5222", "name": "Pilot Travel Center"}, {"site": "441", "city": "Decatur", "state": "AL", "yourPrice": 4.2898, "savings": 0.8692, "lat": 33.5817, "lng": -86.4761, "address": "3240 Point Mallard Parkway", "zip": "35603", "phone": "(256) 353-5252", "name": "Pilot Travel Center"}, {"site": "442", "city": "Hayti", "state": "MO", "yourPrice": 4.3676, "savings": 0.7314, "lat": 39.0561, "lng": -92.8134, "address": "1701 Highway 84 East", "zip": "63851", "phone": "(573) 359-2007", "name": "Pilot Travel Center"}, {"site": "443", "city": "Higginsville", "state": "MO", "yourPrice": 4.1959, "savings": 0.6031, "lat": 38.4061, "lng": -91.6584, "address": "6676 Highway 13", "zip": "64037", "phone": "(660) 584-8484", "name": "Pilot Travel Center"}, {"site": "444", "city": "Brazil", "state": "IN", "yourPrice": 4.5899, "savings": 1.0091, "lat": 38.7244, "lng": -87.6933, "address": "4376 North SR 59", "zip": "47834", "phone": "(812) 446-9400", "name": "Pilot Travel Center"}, {"site": "445", "city": "Chesterton", "state": "IN", "yourPrice": 4.352, "savings": 1.027, "lat": 39.6994, "lng": -85.1383, "address": "243 Melton Road", "zip": "46304", "phone": "(219) 787-5705", "name": "Pilot Travel Center"}, {"site": "446", "city": "Daleville", "state": "IN", "yourPrice": 4.5083, "savings": 0.8907, "lat": 39.8744, "lng": -84.7183, "address": "15876 West Commerce Road", "zip": "47334", "phone": "(765) 378-0246", "name": "Pilot Travel Center"}, {"site": "447", "city": "Haubstadt", "state": "IN", "yourPrice": 4.5779, "savings": 0.8211, "lat": 39.8994, "lng": -84.7533, "address": "1042 East Warrenton Road Route 2 Box 109E", "zip": "47639", "phone": "(812) 868-1048", "name": "Pilot Travel Center"}, {"site": "448", "city": "Hebron", "state": "IN", "yourPrice": 4.3645, "savings": 0.9945, "lat": 41.0744, "lng": -87.0633, "address": "18011 Colorado Street", "zip": "46341", "phone": "(219) 696-8265", "name": "Pilot Travel Center"}, {"site": "449", "city": "Belmont", "state": "OH", "yourPrice": 4.5885, "savings": 1.1705, "lat": 40.4388, "lng": -81.2249, "address": "66377 Belmont-Morristown Road", "zip": "43718", "phone": "(740) 782-0134", "name": "Pilot Travel Center"}, {"site": "454", "city": "London", "state": "OH", "yourPrice": 4.419, "savings": 1.18, "lat": 41.2138, "lng": -81.3649, "address": "1365 SR 42 NE", "zip": "43140", "phone": "(614) 879-4128", "name": "Pilot Travel Center"}, {"site": "455", "city": "Marengo", "state": "OH", "yourPrice": 4.4315, "savings": 1.1275, "lat": 39.3888, "lng": -81.2599, "address": "488 State Route 61", "zip": "43334", "phone": "(419) 253-1400", "name": "Pilot Travel Center"}, {"site": "457", "city": "Beaverdam", "state": "OH", "yourPrice": 4.3775, "savings": 0.6215, "lat": 41.0638, "lng": -84.4099, "address": "427 East Main Street", "zip": "45808", "phone": "(419) 643-6023", "name": "Pilot Travel Center"}, {"site": "458", "city": "Eloy", "state": "AZ", "yourPrice": 4.8804, "savings": 0.9186, "lat": 34.7298, "lng": -111.2212, "address": "619 South Sunshine Boulevard", "zip": "85231", "phone": "(520) 466-7550", "name": "Pilot Travel Center"}, {"site": "459", "city": "Avondale", "state": "AZ", "yourPrice": 4.8674, "savings": 0.6316, "lat": 34.7798, "lng": -112.0262, "address": "900 North 99th Avenue", "zip": "85323", "phone": "(623) 936-0900", "name": "Pilot Travel Center"}, {"site": "460", "city": "Oklahoma City", "state": "OK", "yourPrice": 4.1038, "savings": 0.6952, "lat": 36.1903, "lng": -95.9489, "address": "400 South Morgan Road", "zip": "73128", "phone": "(405) 440-1048", "name": "Pilot Travel Center"}, {"site": "467", "city": "San Antonio", "state": "TX", "yourPrice": 4.147, "savings": 1.052, "lat": 31.0545, "lng": -96.7235, "address": "4105 S. Loop 1604", "zip": "78264", "phone": "(210) 626-9183", "name": "Pilot Travel Center"}, {"site": "468", "city": "Gilman", "state": "IL", "yourPrice": 4.6356, "savings": 0.8634, "lat": 39.9745, "lng": -89.1261, "address": "815 Hwy 24 West", "zip": "60938", "phone": "(815) 265-4754", "name": "Pilot Travel Center"}, {"site": "469", "city": "Canton", "state": "OH", "yourPrice": 4.2998, "savings": 0.9992, "lat": 41.4638, "lng": -81.6799, "address": "2320 Faircrest Street", "zip": "44706", "phone": "(330) 484-3965", "name": "Pilot Travel Center"}, {"site": "470", "city": "Roberts", "state": "WI", "yourPrice": 4.2216, "savings": 0.9774, "lat": 43.1435, "lng": -91.1565, "address": "1191 70th Avenue", "zip": "54023", "phone": "(715) 749-4238", "name": "Flying J"}, {"site": "471", "city": "Haines City", "state": "FL", "yourPrice": 4.5501, "savings": 0.8489, "lat": 28.2913, "lng": -80.2868, "address": "35647 US Hwy 27 North", "zip": "33845", "phone": "(863) 421-3571", "name": "Pilot Travel Center"}, {"site": "472", "city": "Beasley", "state": "TX", "yourPrice": 4.2451, "savings": 1.1539, "lat": 31.6295, "lng": -97.0385}, {"site": "473", "city": "Channahon", "state": "IL", "yourPrice": 4.7962, "savings": 0.4628, "lat": 40.9995, "lng": -89.0911, "address": "23841 West Eames Street", "zip": "60410", "phone": "(815) 467-4455", "name": "Pilot Travel Center"}, {"site": "474", "city": "Sutton", "state": "WV", "yourPrice": 4.3345, "savings": 1.2245, "lat": 38.0412, "lng": -80.2545, "address": "270 Scott's Fork-Bonnie Road", "zip": "26601", "phone": "(304) 765-9270", "name": "Pilot Travel Center"}, {"site": "475", "city": "Moriarty", "state": "NM", "yourPrice": 4.8053, "savings": 0.4537, "lat": 34.6405, "lng": -106.2485, "address": "305 W. Abrahames Road", "zip": "87035", "phone": "(505) 832-4954", "name": "Pilot Travel Center"}, {"site": "476", "city": "Woodhull", "state": "IL", "yourPrice": 4.8626, "savings": 0.6964, "lat": 39.3745, "lng": -90.4211, "address": "900 Plaza Avenue", "zip": "61490", "phone": "(309) 334-4550", "name": "Pilot Travel Center"}, {"site": "477", "city": "Anna", "state": "TX", "yourPrice": 4.1957, "savings": 0.9633, "lat": 30.8545, "lng": -97.0385, "address": "714 S. Central Expressway", "zip": "75409", "phone": "(972) 924-2035", "name": "Flying J"}, {"site": "478", "city": "Leavenworth", "state": "IN", "yourPrice": 4.6478, "savings": 0.9512, "lat": 39.5994, "lng": -86.6783, "address": "6921 South SR 66", "zip": "47137", "phone": "(812) 739-2002", "name": "Pilot Travel Center"}, {"site": "481", "city": "Mc Donald", "state": "TN", "yourPrice": 4.2155, "savings": 1.0835, "lat": 35.6228, "lng": -86.4823, "address": "281 Pleasant Grove Road SW", "zip": "37353", "phone": "(423) 476-3892", "name": "Pilot Travel Center"}, {"site": "482", "city": "Mt. Vernon", "state": "IL", "yourPrice": 5.0303, "savings": 0.2287, "lat": 40.3745, "lng": -89.6511, "address": "4610 Broadway", "zip": "62864", "phone": "(618) 244-1216", "name": "Pilot Travel Center"}, {"site": "483", "city": "Morris", "state": "IL", "yourPrice": 4.5629, "savings": 0.8361, "lat": 39.7495, "lng": -87.6211}, {"site": "485", "city": "Winnemucca", "state": "NV", "yourPrice": 5.3135, "savings": 0.6855, "lat": 37.0885, "lng": -115.5504, "address": "5625 I-80 West Winnemucca Exchange", "zip": "89445", "phone": "(775) 625-2800", "name": "Pilot Travel Center"}, {"site": "486", "city": "Tyler", "state": "TX", "yourPrice": 4.3089, "savings": 0.7801, "lat": 30.1045, "lng": -97.7735, "address": "12881 FM 14 A", "zip": "75706", "phone": "(903) 593-5466", "name": "Pilot Travel Center"}, {"site": "488", "city": "Cotulla", "state": "TX", "yourPrice": 4.4568, "savings": 0.9022, "lat": 30.4545, "lng": -97.6335, "address": "921 N. IH 35", "zip": "78014", "phone": "(830) 879-5363", "name": "Flying J"}, {"site": "489", "city": "Grand Forks", "state": "ND", "yourPrice": 4.2293, "savings": 0.7097, "lat": 46.3289, "lng": -101.394, "address": "4401 32nd Avenue South", "zip": "58201", "phone": "(701) 738-0017", "name": "Flying J"}, {"site": "491", "city": "Harrisonburg", "state": "VA", "yourPrice": 4.4357, "savings": 1.2633, "lat": 38.6443, "lng": -78.765, "address": "3634 North Valley Pike", "zip": "22802", "phone": "(540) 434-2529", "name": "Pilot Travel Center"}, {"site": "492", "city": "Arkadelphia", "state": "AR", "yourPrice": 4.1805, "savings": 0.6685, "lat": 35.1447, "lng": -91.5681, "address": "170 Valley Street", "zip": "71923", "phone": "(870) 245-3119", "name": "Pilot Travel Center"}, {"site": "493", "city": "St George", "state": "SC", "yourPrice": 4.4748, "savings": 0.7242, "lat": 33.6569, "lng": -82.17, "address": "113 Motel Drive", "zip": "29477", "phone": "(843) 563-8989", "name": "Flying J"}, {"site": "494", "city": "Schenectady", "state": "NY", "yourPrice": 4.6122, "savings": 1.0868, "lat": 42.6157, "lng": -75.4381, "address": "1128 Duanesburg Road", "zip": "12306", "phone": "(518) 356-5616", "name": "Pilot Travel Center"}, {"site": "495", "city": "Brooklyn", "state": "IA", "yourPrice": 4.2345, "savings": 0.8645, "lat": 42.5115, "lng": -94.1905, "address": "4126 Highway 21", "zip": "52211", "phone": "(319) 685-4221", "name": "Pilot Travel Center"}, {"site": "497", "city": "Lincoln", "state": "AL", "yourPrice": 4.2948, "savings": 0.8042, "lat": 31.5567, "lng": -86.8961, "address": "121 Honda Drive", "zip": "35096", "phone": "(205) 763-2225", "name": "Pilot Travel Center"}, {"site": "498", "city": "Atoka", "state": "OK", "yourPrice": 4.1807, "savings": 0.6683, "lat": 36.2153, "lng": -96.1589}, {"site": "500", "city": "Jasper", "state": "FL", "yourPrice": 4.5627, "savings": 0.7363, "lat": 27.3413, "lng": -81.1618}, {"site": "503", "city": "Morgantown", "state": "WV", "yourPrice": 4.4665, "savings": 1.0925, "lat": 38.5662, "lng": -80.7445, "address": "2309 Smithtown Road I-79 Exit 146", "zip": "26508", "phone": "(304) 284-8518", "name": "Pilot Travel Center"}, {"site": "504", "city": "Klamath Falls", "state": "OR", "yourPrice": 4.8512, "savings": 1.6478, "lat": 43.922, "lng": -121.0909, "address": "3817 N Hwy 97", "zip": "97601", "phone": "(541) 884-0400", "name": "Pilot Travel Center"}, {"site": "507", "city": "Jarrell", "state": "TX", "yourPrice": 4.2014, "savings": 0.9976, "lat": 31.0045, "lng": -98.8935, "address": "11710 North Interstate 35", "zip": "76537", "phone": "(512) 746-4341", "name": "Flying J US Dealer"}, {"site": "509", "city": "Beaver", "state": "UT", "yourPrice": 4.8803, "savings": 0.7187, "lat": 39.6, "lng": -112.1424, "address": "653 West 1400 North", "zip": "84713", "phone": "(435) 438-5191", "name": "Flying J US Dealer"}, {"site": "510", "city": "Scipio", "state": "UT", "yourPrice": 5.2179, "savings": 0.3811, "lat": 39.275, "lng": -110.3924, "address": "810 North 800 West", "zip": "84656", "phone": "(435) 758-2345", "name": "Flying J US Dealer"}, {"site": "511", "city": "Mandan", "state": "ND", "yourPrice": 4.062, "savings": 1.037, "lat": 46.5539, "lng": -101.149}, {"site": "513", "city": "Jean", "state": "NV", "yourPrice": 4.9552, "savings": 0.6438, "lat": 38.2385, "lng": -118.3504, "address": "115 West Primm Blvd.", "zip": "89019", "phone": "(702) 679-6666", "name": "Flying J US Dealer"}, {"site": "514", "city": "Lincoln", "state": "IL", "yourPrice": 4.7692, "savings": 0.4898, "lat": 41.1995, "lng": -88.0411, "address": "2903 Woodlawn Road", "zip": "62656", "phone": "(217) 732-3915", "name": "Thorntons"}, {"site": "517", "city": "Duncannon", "state": "PA", "yourPrice": 4.9193, "savings": 0.8797, "lat": 41.3408, "lng": -78.8898, "address": "30 Benvenue Road", "zip": "17020", "phone": "(717) 834-3156", "name": "Pilot Travel Center"}, {"site": "518", "city": "Frystown", "state": "PA", "yourPrice": 4.81, "savings": 0.889, "lat": 40.3408, "lng": -75.5998, "address": "2210 Camp Swatara Road", "zip": "17067", "phone": "(717) 933-4146", "name": "Flying J"}, {"site": "549", "city": "Mt Airy", "state": "NC", "yourPrice": 4.3992, "savings": 1.2998, "lat": 34.8301, "lng": -79.6664, "address": "125 Plaza Lane", "zip": "27030", "phone": "(336) 352-3167", "name": "Flying J US Dealer"}, {"site": "550", "city": "Minot", "state": "ND", "yourPrice": 4.112, "savings": 0.787, "lat": 46.7289, "lng": -101.289, "address": "3800 Highway 2 and 52 W", "zip": "58701", "phone": "(701) 839-5061", "name": "Flying J US Dealer"}, {"site": "551", "city": "Cisco", "state": "TX", "yourPrice": 4.5238, "savings": 0.6352, "lat": 31.3045, "lng": -98.8585}, {"site": "552", "city": "Lebanon", "state": "OH", "yourPrice": 4.6635, "savings": 0.7955, "lat": 40.1138, "lng": -83.8499}, {"site": "553", "city": "Fort Stockton", "state": "TX", "yourPrice": 4.4214, "savings": 1.1376, "lat": 30.2045, "lng": -98.7535, "address": "2571 N. Front Street", "zip": "79735", "phone": "(432) 336-3410", "name": "Flying J"}, {"site": "554", "city": "George West", "state": "TX", "yourPrice": 4.1495, "savings": 0.9495, "lat": 30.6795, "lng": -98.0185}, {"site": "557", "city": "Hobbs", "state": "NM", "yourPrice": 4.5103, "savings": 0.9887, "lat": 34.4905, "lng": -106.0735}, {"site": "559", "city": "Big Spring", "state": "TX", "yourPrice": 4.3402, "savings": 1.0588, "lat": 31.8045, "lng": -97.3535}, {"site": "568", "city": "Von Ormy", "state": "TX", "yourPrice": 4.1545, "savings": 0.9445, "lat": 32.1795, "lng": -96.5135, "address": "14555 IH35 South", "zip": "78073", "phone": "(210) 622-9384", "name": "Pilot Travel Center"}, {"site": "571", "city": "Charleston", "state": "MO", "yourPrice": 4.3079, "savings": 1.0911, "lat": 37.5311, "lng": -93.8634, "address": "2460 E. Highway 60", "zip": "63834", "phone": "(573) 683-4153", "name": "Flying J"}, {"site": "572", "city": "Williams", "state": "IA", "yourPrice": 4.2527, "savings": 0.9463, "lat": 43.2115, "lng": -92.2305, "address": "3040 220th Street", "zip": "50271", "phone": "(515) 854-9117", "name": "Flying J"}, {"site": "573", "city": "Hempstead", "state": "TX", "yourPrice": 4.2576, "savings": 1.2414, "lat": 29.9795, "lng": -99.1385}, {"site": "575", "city": "Saint Marys", "state": "GA", "yourPrice": 4.2036, "savings": 0.7954, "lat": 33.5156, "lng": -85.3581, "address": "491 St. Mary's Road", "zip": "31558", "phone": "(912) 576-5424", "name": "Pilot Travel Center"}, {"site": "576", "city": "Northfield", "state": "MN", "yourPrice": 4.2907, "savings": 1.2083, "lat": 44.5195, "lng": -92.5352, "address": "8051 Bagley Avenue", "zip": "55057", "phone": "(507) 645-6082", "name": "Flying J"}, {"site": "580", "city": "Odessa", "state": "TX", "yourPrice": 4.3489, "savings": 0.8501, "lat": 30.9795, "lng": -99.2435, "address": "5900 E. Interstate 20", "zip": "79766", "phone": "(432) 366-0812", "name": "Flying J"}, {"site": "581", "city": "Inver Grove Heights", "state": "MN", "yourPrice": 4.2707, "savings": 0.8283, "lat": 44.4945, "lng": -92.2552, "address": "11650 Courthouse Blvd.", "zip": "55077", "phone": "(651) 438-3397", "name": "Pilot Travel Center"}, {"site": "583", "city": "Ferndale", "state": "WA", "yourPrice": 5.9583, "savings": 1.0407, "lat": 46.8259, "lng": -121.8055, "address": "1678 Main Street", "zip": "98248", "phone": "(360) 312-1822", "name": "Pilot Travel Center"}, {"site": "584", "city": "Aurora", "state": "OR", "yourPrice": 4.7942, "savings": 1.6648, "lat": 43.447, "lng": -123.0859, "address": "12334 Ehlen Road", "zip": "97002", "phone": "", "name": "Flying J"}, {"site": "586", "city": "Moss Point", "state": "MS", "yourPrice": 4.2246, "savings": 0.9744, "lat": 32.1666, "lng": -88.5937, "address": "5705 Hwy 63", "zip": "39563", "phone": "(228) 474-6511", "name": "Pilot Travel Center"}, {"site": "590", "city": "Alexandria", "state": "MN", "yourPrice": 4.2846, "savings": 0.5144, "lat": 45.6945, "lng": -94.4602, "address": "3181 Evergreen Lane", "zip": "56308", "phone": "(320) 763-9222", "name": "Pilot Travel Center"}, {"site": "592", "city": "Grand Junction", "state": "CO", "yourPrice": 4.8808, "savings": 0.0682, "lat": 39.1348, "lng": -104.1561}, {"site": "593", "city": "Tucson", "state": "AZ", "yourPrice": 5.0766, "savings": 0.6824, "lat": 32.7048, "lng": -111.3262, "address": "5570 E. Travel Plaza Way", "zip": "85756", "phone": "(520) 663-3348", "name": "Pilot Travel Center"}, {"site": "594", "city": "Sioux City", "state": "IA", "yourPrice": 4.196, "savings": 0.953, "lat": 42.8615, "lng": -91.6705, "address": "2815 Singing Hills Blvd.", "zip": "51111", "phone": "(712) 258-3816", "name": "Pilot Travel Center"}, {"site": "595", "city": "Marion", "state": "IL", "yourPrice": 5.0523, "savings": 0.4467, "lat": 39.8245, "lng": -90.1761, "address": "2611 Vernell Road", "zip": "62959", "phone": "(618) 993-2697", "name": "Pilot Travel Center"}, {"site": "596", "city": "Kimball Township", "state": "MI", "yourPrice": 4.3901, "savings": 1.2089, "lat": 43.6016, "lng": -84.0811, "address": "2424 Wadhams Road", "zip": "48074", "phone": "(810) 987-7823", "name": "Pilot Travel Center"}, {"site": "597", "city": "Chillicothe", "state": "OH", "yourPrice": 4.4315, "savings": 1.0675, "lat": 41.3638, "lng": -81.2249}, {"site": "599", "city": "Murdo", "state": "SD", "yourPrice": 4.3778, "savings": 0.7812, "lat": 45.5248, "lng": -98.3538, "address": "601 East Fifth Street", "zip": "57559", "phone": "(605) 669-2465", "name": "Pilot Travel Center"}, {"site": "601", "city": "Mc Calla", "state": "AL", "yourPrice": 4.2473, "savings": 0.5517, "lat": 31.9817, "lng": -86.6161, "address": "6098 MacAshan Dr", "zip": "35111", "phone": "(205) 477-9181", "name": "Flying J"}, {"site": "602", "city": "Birmingham", "state": "AL", "yourPrice": 4.2633, "savings": 0.9957, "lat": 31.6317, "lng": -88.0161, "address": "224 Daniel Payne Drive", "zip": "35207", "phone": "(205) 323-2177", "name": "Flying J"}, {"site": "603", "city": "Dothan", "state": "AL", "yourPrice": 4.422, "savings": 0.777, "lat": 33.0817, "lng": -86.9311, "address": "2190 Ross Clark Circle", "zip": "36301", "phone": "(334) 792-5152", "name": "Flying J"}, {"site": "604", "city": "Hope Hull", "state": "AL", "yourPrice": 4.2588, "savings": 1.0002, "lat": 32.7817, "lng": -87.5261, "address": "900 Tyson Road", "zip": "36043", "phone": "(334) 613-0212", "name": "Flying J"}, {"site": "605", "city": "Russellville", "state": "AR", "yourPrice": 4.3208, "savings": 0.6582, "lat": 34.6947, "lng": -91.0431, "address": "42 Bradley Cove Road", "zip": "72801", "phone": "(479) 890-6161", "name": "Flying J"}, {"site": "606", "city": "Texarkana", "state": "AR", "yourPrice": 4.421, "savings": 0.678, "lat": 34.9447, "lng": -92.8981, "address": "Rt 12 Box 254B I30 & Hwy 108", "zip": "71854", "phone": "(870) 774-3595", "name": "Flying J"}, {"site": "607", "city": "West Memphis", "state": "AR", "yourPrice": 4.2318, "savings": 0.8672, "lat": 36.0697, "lng": -92.4431, "address": "3400 Service Loop Road", "zip": "72301", "phone": "(870) 735-8200", "name": "Flying J"}, {"site": "608", "city": "Ehrenberg", "state": "AZ", "yourPrice": 4.9454, "savings": 0.9536, "lat": 32.7298, "lng": -112.9712, "address": "Box 801 I-10 Exit 1 S Frontage", "zip": "85334", "phone": "(928) 923-9600", "name": "Flying J"}, {"site": "609", "city": "Eloy", "state": "AZ", "yourPrice": 4.8804, "savings": 0.9186, "lat": 34.7298, "lng": -111.2212, "address": "16189 S Sunshine Blvd", "zip": "85231", "phone": "(520) 466-9204", "name": "Flying J"}, {"site": "610", "city": "Kingman", "state": "AZ", "yourPrice": 4.7748, "savings": 1.4842, "lat": 33.5048, "lng": -111.4662, "address": "3300 E Andy DeVine Ave", "zip": "86401", "phone": "(928) 757-7300", "name": "Flying J"}, {"site": "611", "city": "Phoenix", "state": "AZ", "yourPrice": 4.8674, "savings": 0.6316, "lat": 34.0298, "lng": -111.8512, "address": "6700 West Latham", "zip": "85043", "phone": "(623) 936-1118", "name": "Flying J"}, {"site": "612", "city": "Winslow", "state": "AZ", "yourPrice": 4.9779, "savings": 0.7811, "lat": 33.3048, "lng": -111.5712, "address": "400 Transcon Lane", "zip": "86047", "phone": "(928) 289-2081", "name": "Flying J"}, {"site": "613", "city": "Bakersfield", "state": "CA", "yourPrice": 6.1242, "savings": 1.1748, "lat": 35.7912, "lng": -118.7016, "address": "17047 Zachary Ave", "zip": "93308", "phone": "(661) 392-5300", "name": "Flying J"}, {"site": "614", "city": "Barstow", "state": "CA", "yourPrice": 6.0653, "savings": 1.1337, "lat": 37.1912, "lng": -118.1766, "address": "2611 Fisher Blvd.", "zip": "92311", "phone": "(760) 253-7043", "name": "Flying J"}, {"site": "616", "city": "Frazier Park", "state": "CA", "yourPrice": 6.2073, "savings": 1.1917, "lat": 36.9912, "lng": -121.1166, "address": "42810 Frazier Mountain Park Rd", "zip": "93243", "phone": "(661) 248-2600", "name": "Flying J"}, {"site": "617", "city": "Lodi", "state": "CA", "yourPrice": 6.5428, "savings": 0.6562, "lat": 36.0662, "lng": -119.2266, "address": "15100 North Thornton Rd", "zip": "95242", "phone": "(209) 339-4066", "name": "Flying J"}, {"site": "618", "city": "Ripon", "state": "CA", "yourPrice": 6.5286, "savings": 0.6704, "lat": 36.2162, "lng": -121.3966, "address": "1501 North Jack Tone Road", "zip": "95366", "phone": "(209) 599-4141", "name": "Flying J"}, {"site": "619", "city": "Aurora", "state": "CO", "yourPrice": 4.6825, "savings": 0.3165, "lat": 39.4598, "lng": -106.9211, "address": "16751 East 32nd Ave", "zip": "80011", "phone": "(303) 366-7600", "name": "Flying J"}, {"site": "620", "city": "Smithton", "state": "PA", "yourPrice": 4.8397, "savings": 1.0593, "lat": 39.8408, "lng": -77.6298, "address": "122 Fitzhenry Road", "zip": "15479", "phone": "(724) 872-4050", "name": "Flying J"}, {"site": "621", "city": "Limon", "state": "CO", "yourPrice": 4.715, "savings": 0.444, "lat": 39.1348, "lng": -103.8411, "address": "2495 Williams Ave", "zip": "80828", "phone": "(719) 775-9286", "name": "Flying J"}, {"site": "622", "city": "Saint Lucie", "state": "FL", "yourPrice": 4.5692, "savings": 1.0298, "lat": 28.2663, "lng": -80.8468, "address": "100 North Kings Hwy", "zip": "34945", "phone": "(772) 461-0091", "name": "Flying J"}, {"site": "623", "city": "Quincy", "state": "FL", "yourPrice": 4.5242, "savings": 0.8348, "lat": 27.1163, "lng": -81.3368, "address": "32670 Blue Star Hwy", "zip": "32343", "phone": "(850) 574-1299", "name": "Flying J"}, {"site": "624", "city": "Dade City", "state": "FL", "yourPrice": 4.4906, "savings": 0.9684, "lat": 28.3913, "lng": -81.6518, "address": "29933 State Road 52", "zip": "33576", "phone": "(352) 588-5444", "name": "Flying J"}, {"site": "625", "city": "Tampa", "state": "FL", "yourPrice": 4.4681, "savings": 0.8309, "lat": 28.6913, "lng": -82.1418, "address": "11555 East Sligh Ave.", "zip": "33584", "phone": "(813) 612-9438", "name": "Flying J"}, {"site": "626", "city": "St Augustine", "state": "FL", "yourPrice": 4.5283, "savings": 0.9707, "lat": 28.8163, "lng": -82.5968, "address": "950 State Road 206 West", "zip": "32086", "phone": "(904) 794-0426", "name": "Flying J"}, {"site": "627", "city": "Brunswick", "state": "GA", "yourPrice": 4.2111, "savings": 0.7879, "lat": 33.8156, "lng": -84.8331, "address": "2990 US Hwy 17 South", "zip": "31523", "phone": "(912) 280-0006", "name": "Flying J"}, {"site": "628", "city": "Carnesville", "state": "GA", "yourPrice": 4.1344, "savings": 0.9646, "lat": 34.2156, "lng": -84.3081, "address": "10226 Old Federal Road", "zip": "30521", "phone": "(706) 335-6656", "name": "Flying J"}, {"site": "630", "city": "Jackson", "state": "GA", "yourPrice": 4.1635, "savings": 0.8955, "lat": 32.7656, "lng": -83.8181, "address": "I-75 & Exit 66 Bucksnort Road", "zip": "30233", "phone": "(770) 775-0138", "name": "Flying J"}, {"site": "631", "city": "Lake Park", "state": "GA", "yourPrice": 4.192, "savings": 0.967, "lat": 31.9406, "lng": -83.6781, "address": "7001 Lake Park Bellville Road", "zip": "31636", "phone": "(229) 559-6500", "name": "Flying J"}, {"site": "632", "city": "Resaca", "state": "GA", "yourPrice": 4.057, "savings": 1.042, "lat": 33.9906, "lng": -83.7831, "address": "288 Resaca Beach Blvd", "zip": "30735", "phone": "(706) 629-1541", "name": "Flying J"}, {"site": "633", "city": "Union Point", "state": "GA", "yourPrice": 4.1302, "savings": 1.2688, "lat": 34.1656, "lng": -84.0281, "address": "3600 Highway 77 South", "zip": "30669", "phone": "(706) 486-4835", "name": "Flying J"}, {"site": "634", "city": "Temple", "state": "GA", "yourPrice": 4.0801, "savings": 1.0489, "lat": 33.7656, "lng": -83.1181, "address": "15 Villa Rosa Road", "zip": "30179", "phone": "(770) 562-4009", "name": "Flying J"}, {"site": "636", "city": "Davenport", "state": "IA", "yourPrice": 4.302, "savings": 1.097, "lat": 41.7365, "lng": -92.4755, "address": "8200 N.W. Blvd.", "zip": "52806", "phone": "(563) 386-7710", "name": "Flying J"}, {"site": "637", "city": "Evansdale", "state": "IA", "yourPrice": 4.2143, "savings": 0.6847, "lat": 40.9865, "lng": -92.6155, "address": "445 Evansdale Drive", "zip": "50707", "phone": "(319) 291-7714", "name": "Flying J"}, {"site": "638", "city": "Caldwell", "state": "ID", "yourPrice": 5.1527, "savings": 0.5463, "lat": 45.2655, "lng": -113.6038, "address": "3512 Franklin Road", "zip": "83605", "phone": "(208) 453-9225", "name": "Flying J"}, {"site": "639", "city": "Post Falls", "state": "ID", "yourPrice": 5.599, "savings": 0, "lat": 44.6905, "lng": -115.5638, "address": "3636 W. 5th Street", "zip": "83854", "phone": "(208) 773-0593", "name": "Flying J"}, {"site": "640", "city": "Twin Falls", "state": "ID", "yourPrice": 5.1852, "savings": 0.6138, "lat": 44.4155, "lng": -113.6738, "address": "5350 Hwy 93 I-84 & Exit 173", "zip": "83338", "phone": "(208) 324-3454", "name": "Flying J"}, {"site": "641", "city": "Mccammon", "state": "ID", "yourPrice": 5.1304, "savings": 0.5686, "lat": 44.6405, "lng": -115.7738, "address": "587 E. US HWY 30", "zip": "83250", "phone": "(208) 254-9845", "name": "Flying J"}, {"site": "642", "city": "East Saint Louis", "state": "IL", "yourPrice": 4.9369, "savings": 0.3221, "lat": 40.5495, "lng": -90.1411, "address": "140 Racehorse Dr.", "zip": "62207", "phone": "(618) 337-4579", "name": "Flying J"}, {"site": "643", "city": "Effingham", "state": "IL", "yourPrice": 4.7332, "savings": 0.5658, "lat": 40.2495, "lng": -89.9661, "address": "1701 W Evergreen/I-70 & I-55", "zip": "62401", "phone": "(217) 347-7161", "name": "Flying J"}, {"site": "644", "city": "La Salle", "state": "IL", "yourPrice": 4.6132, "savings": 0.5858, "lat": 40.5495, "lng": -88.2511, "address": "343 Civic Road", "zip": "61301", "phone": "(815) 220-0611", "name": "Flying J"}, {"site": "645", "city": "Granite City", "state": "IL", "yourPrice": 4.8709, "savings": 0.3881, "lat": 39.4995, "lng": -87.6561, "address": "1310 East Chain of Rocks Road", "zip": "62040", "phone": "(618) 931-1580", "name": "Flying J"}, {"site": "646", "city": "South Beloit", "state": "IL", "yourPrice": 4.6674, "savings": 0.8316, "lat": 40.3245, "lng": -89.6511, "address": "16049 Willowbrook Road", "zip": "61080", "phone": "(815) 389-4760", "name": "Flying J"}, {"site": "647", "city": "Haubstadt", "state": "IN", "yourPrice": 4.5779, "savings": 0.8211, "lat": 39.8994, "lng": -84.7533, "address": "844 East 1250 South", "zip": "47639", "phone": "(812) 768-5304", "name": "Flying J"}, {"site": "649", "city": "Indianapolis", "state": "IN", "yourPrice": 4.5649, "savings": 1.0341, "lat": 38.8744, "lng": -86.1883, "address": "1720 W Thompson Rd", "zip": "46217", "phone": "(317) 783-5543", "name": "Flying J"}, {"site": "650", "city": "Lake Station", "state": "IN", "yourPrice": 4.352, "savings": 1.027, "lat": 40.8994, "lng": -87.3433, "address": "1401 Ripley Street", "zip": "46405", "phone": "(219) 962-6555", "name": "Flying J"}, {"site": "652", "city": "Lebanon", "state": "IN", "yourPrice": 4.5649, "savings": 1.0341, "lat": 38.8744, "lng": -84.6133, "address": "520 South State Road #39 I-65", "zip": "46052", "phone": "(765) 483-9755", "name": "Flying J"}, {"site": "653", "city": "Lowell", "state": "IN", "yourPrice": 4.3645, "savings": 0.9945, "lat": 38.8244, "lng": -86.7483, "address": "3231 East 181st Avenue", "zip": "46341", "phone": "(219) 696-6446", "name": "Flying J"}, {"site": "655", "city": "Spiceland", "state": "IN", "yourPrice": 4.5749, "savings": 0.9841, "lat": 40.0994, "lng": -85.4883, "address": "5300 South State Rte. 3", "zip": "47385", "phone": "(765) 987-1833", "name": "Flying J"}, {"site": "656", "city": "Whiteland", "state": "IN", "yourPrice": 4.5749, "savings": 1.2241, "lat": 38.7494, "lng": -86.5733, "address": "4982 N. White Street", "zip": "46184", "phone": "(317) 535-1124", "name": "Flying J"}, {"site": "657", "city": "Dodge City", "state": "KS", "yourPrice": 4.1918, "savings": 1.0672, "lat": 39.4016, "lng": -97.0765, "address": "2524 E Wyatt Earp Blvd", "zip": "67801", "phone": "(620) 338-8888", "name": "Flying J"}, {"site": "658", "city": "Emporia", "state": "KS", "yourPrice": 4.1041, "savings": 0.6949, "lat": 37.6016, "lng": -97.9865, "address": "4215 West Hwy 50", "zip": "66801", "phone": "(620) 343-2717", "name": "Flying J"}, {"site": "659", "city": "Salina", "state": "KS", "yourPrice": 4.1598, "savings": 1.1392, "lat": 38.0266, "lng": -95.9215, "address": "2250 North Ohio Street", "zip": "67401", "phone": "(785) 825-5300", "name": "Flying J"}, {"site": "660", "city": "Catlettsburg", "state": "KY", "yourPrice": 4.1871, "savings": 1.4119, "lat": 38.4931, "lng": -85.4751, "address": "15236 State Route 180", "zip": "41129", "phone": "(606) 928-8383", "name": "Flying J"}, {"site": "661", "city": "Franklin", "state": "KY", "yourPrice": 4.2693, "savings": 0.9297, "lat": 37.0681, "lng": -85.7551, "address": "4380 Nashville Road", "zip": "42134", "phone": "(270) 586-3343", "name": "Flying J"}, {"site": "662", "city": "Oak Grove", "state": "KY", "yourPrice": 4.2818, "savings": 0.9172, "lat": 36.9431, "lng": -85.4751, "address": "18750 Herndon Oak Grove Rd.", "zip": "42262", "phone": "(270) 640-7000", "name": "Flying J"}, {"site": "663", "city": "Waddy", "state": "KY", "yourPrice": 4.2568, "savings": 1.1422, "lat": 37.7431, "lng": -85.4751, "address": "1670 Waddy Road", "zip": "40076", "phone": "(502) 829-9100", "name": "Flying J"}, {"site": "664", "city": "Walton", "state": "KY", "yourPrice": 4.1838, "savings": 1.1152, "lat": 36.8681, "lng": -83.1301, "address": "13019 Walton Verona Rd", "zip": "41094", "phone": "(859) 485-4400", "name": "Flying J"}, {"site": "665", "city": "Greenwood", "state": "LA", "yourPrice": 4.1894, "savings": 0.6796, "lat": 30.17, "lng": -91.6228, "address": "9510 Greenwood Road", "zip": "71033", "phone": "(318) 938-7744", "name": "Flying J"}, {"site": "666", "city": "Benton Harbor", "state": "MI", "yourPrice": 4.4145, "savings": 0.7845, "lat": 42.7766, "lng": -83.4861, "address": "1860 East Napier Ave.", "zip": "49022", "phone": "(269) 925-7547", "name": "Pilot Travel Center"}, {"site": "667", "city": "Grand Ledge", "state": "MI", "yourPrice": 4.3268, "savings": 1.1722, "lat": 43.9016, "lng": -84.0111, "address": "7800 West Grand River Ave.", "zip": "48837", "phone": "(517) 627-7504", "name": "Flying J"}, {"site": "668", "city": "Saginaw", "state": "MI", "yourPrice": 4.3451, "savings": 1.3439, "lat": 42.8016, "lng": -83.6961, "address": "3475 E Washington", "zip": "48601", "phone": "(989) 752-6350", "name": "Flying J"}, {"site": "669", "city": "Joplin", "state": "MO", "yourPrice": 4.2282, "savings": 0.7708, "lat": 38.9311, "lng": -93.4434, "address": "11570 Hwy FF", "zip": "64804", "phone": "(417) 626-7600", "name": "Flying J"}, {"site": "671", "city": "Matthews", "state": "MO", "yourPrice": 4.3576, "savings": 0.6414, "lat": 37.6061, "lng": -90.6434, "address": "703 State Hwy 80", "zip": "63867", "phone": "(573) 472-3336", "name": "Flying J"}, {"site": "672", "city": "Peculiar", "state": "MO", "yourPrice": 4.2434, "savings": 0.4556, "lat": 39.2811, "lng": -92.4984, "address": "700 J Hwy", "zip": "64078", "phone": "(816) 779-8000", "name": "Flying J"}, {"site": "673", "city": "Sullivan", "state": "MO", "yourPrice": 4.3683, "savings": 0.7307, "lat": 38.4811, "lng": -93.6184, "address": "1500 AF Highway", "zip": "63080", "phone": "(573) 860-8880", "name": "Flying J"}, {"site": "674", "city": "Warrenton", "state": "MO", "yourPrice": 4.3683, "savings": 1.0307, "lat": 37.5561, "lng": -91.0634, "address": "#1 Camp Branch Rd", "zip": "63383", "phone": "(636) 456-2001", "name": "Flying J"}, {"site": "675", "city": "Wayland", "state": "MO", "yourPrice": 4.2857, "savings": 0.8733, "lat": 38.8811, "lng": -92.1134, "address": "102 Fore Drive", "zip": "63472", "phone": "(660) 754-1550", "name": "Flying J"}, {"site": "676", "city": "Gulfport", "state": "MS", "yourPrice": 4.0979, "savings": 1.1011, "lat": 32.9166, "lng": -90.1337, "address": "9351 Canal Road", "zip": "39503", "phone": "(228) 868-2711", "name": "Flying J"}, {"site": "677", "city": "Olive Branch", "state": "MS", "yourPrice": 4.1853, "savings": 1.0137, "lat": 32.0416, "lng": -90.4837, "address": "4740 Bethel Road", "zip": "38654", "phone": "(662) 895-1001", "name": "Flying J"}, {"site": "678", "city": "Pearl", "state": "MS", "yourPrice": 4.1897, "savings": 0.3693, "lat": 33.8416, "lng": -90.7637, "address": "685 Highway 80 East", "zip": "39208", "phone": "(601) 936-0190", "name": "Flying J"}, {"site": "682", "city": "Graham", "state": "NC", "yourPrice": 4.3667, "savings": 1.2323, "lat": 36.2301, "lng": -78.5114, "address": "1043 Jimmie Kerr Rd", "zip": "27258", "phone": "(336) 578-2427", "name": "Flying J"}, {"site": "683", "city": "Kenly", "state": "NC", "yourPrice": 4.4035, "savings": 1.3555, "lat": 36.5801, "lng": -80.4014, "address": "1800 Princeton-Kenly Road", "zip": "27542", "phone": "(919) 284-4548", "name": "Flying J"}, {"site": "684", "city": "Beach", "state": "ND", "yourPrice": 4.4465, "savings": 0.6525, "lat": 47.6789, "lng": -100.519, "address": "I-94 & Hwy 16", "zip": "58621", "phone": "(701) 872-4737", "name": "Flying J"}, {"site": "685", "city": "Fargo", "state": "ND", "yourPrice": 4.2218, "savings": 0.6272, "lat": 46.6789, "lng": -98.174, "address": "3150 39th St SW Suite A", "zip": "58104", "phone": "(701) 282-7766", "name": "Flying J"}, {"site": "686", "city": "Gretna", "state": "NE", "yourPrice": 4.257, "savings": 0.442, "lat": 40.3504, "lng": -98.1981, "address": "15010 South State Hwy 31", "zip": "68028", "phone": "(402) 332-4483", "name": "Flying J"}, {"site": "687", "city": "North Platte", "state": "NE", "yourPrice": 4.2796, "savings": 0.7194, "lat": 41.3254, "lng": -96.7981, "address": "3400 So. Newberry Rd.", "zip": "69101", "phone": "(308) 532-4555", "name": "Flying J"}, {"site": "688", "city": "Carneys Point", "state": "NJ", "yourPrice": 4.8755, "savings": 0.5235, "lat": 40.5239, "lng": -76.166, "address": "326 Slapes Corner/I295 Ex 2C", "zip": "8069", "phone": "(856) 351-0080", "name": "Flying J"}, {"site": "689", "city": "Albuquerque", "state": "NM", "yourPrice": 4.8078, "savings": 0.3912, "lat": 35.6655, "lng": -105.4085, "address": "9911 Avalon Road NW", "zip": "87105", "phone": "(505) 831-2001", "name": "Flying J"}, {"site": "690", "city": "Lordsburg", "state": "NM", "yourPrice": 4.6724, "savings": 0.9266, "lat": 34.3405, "lng": -105.2685, "address": "11 Old Hwy 70", "zip": "88045", "phone": "(575) 542-3320", "name": "Flying J"}, {"site": "691", "city": "Tucumcari", "state": "NM", "yourPrice": 4.3486, "savings": 0.8104, "lat": 33.6155, "lng": -104.9885, "address": "2021 S. Mountain Rd", "zip": "88401", "phone": "(575) 461-6590", "name": "Flying J"}, {"site": "692", "city": "Wells", "state": "NV", "yourPrice": 5.1324, "savings": 0.4266, "lat": 38.2135, "lng": -116.0054, "address": "156 Hwy 93 South", "zip": "89835", "phone": "(775) 752-2400", "name": "Flying J"}, {"site": "693", "city": "Pembroke", "state": "NY", "yourPrice": 4.7511, "savings": 1.0379, "lat": 41.7657, "lng": -76.5931, "address": "8484 Allegheny Road", "zip": "14036", "phone": "(585) 599-4430", "name": "Flying J"}, {"site": "694", "city": "Austinburg", "state": "OH", "yourPrice": 4.3671, "savings": 1.3919, "lat": 40.9888, "lng": -81.7849, "address": "2349 Center Road", "zip": "44010", "phone": "(440) 275-1515", "name": "Flying J"}, {"site": "695", "city": "Beaverdam", "state": "OH", "yourPrice": 4.3775, "savings": 0.6215, "lat": 41.0638, "lng": -84.4099, "address": "420 East Main Street", "zip": "45808", "phone": "(419) 643-8001", "name": "Flying J"}, {"site": "696", "city": "Berkshire", "state": "OH", "yourPrice": 4.429, "savings": 1.13, "lat": 39.3888, "lng": -84.3749, "address": "7735 East State Rt 37", "zip": "43074", "phone": "(740) 965-9835", "name": "Flying J"}, {"site": "697", "city": "Hubbard", "state": "OH", "yourPrice": 4.3474, "savings": 1.1116, "lat": 41.1888, "lng": -83.4299, "address": "2226 North Main", "zip": "44425", "phone": "(330) 534-3774", "name": "Flying J"}, {"site": "698", "city": "Washington Court House", "state": "OH", "yourPrice": 4.4265, "savings": 1.0325, "lat": 40.4388, "lng": -81.9249, "address": "9935 SR 41", "zip": "43128", "phone": "(740) 426-9136", "name": "Flying J"}, {"site": "699", "city": "Millersport", "state": "OH", "yourPrice": 4.421, "savings": 1.138, "lat": 39.5388, "lng": -83.9899, "address": "10480 Baltimore", "zip": "43046", "phone": "(740) 964-9601", "name": "Flying J"}, {"site": "700", "city": "Lake Township", "state": "OH", "yourPrice": 4.3086, "savings": 0.8904, "lat": 40.8388, "lng": -82.0299, "address": "26415 Warns Road", "zip": "43551", "phone": "(419) 837-2100", "name": "Flying J"}, {"site": "701", "city": "Ardmore", "state": "OK", "yourPrice": 4.1607, "savings": 1.3383, "lat": 35.3653, "lng": -96.3339, "address": "2450 Cooper Drive", "zip": "73401", "phone": "(580) 226-3833", "name": "Flying J"}, {"site": "702", "city": "Checotah", "state": "OK", "yourPrice": 4.0613, "savings": 0.9377, "lat": 36.1653, "lng": -96.4039, "address": "1255 Gentry", "zip": "74426", "phone": "(918) 473-1243", "name": "Flying J"}, {"site": "703", "city": "Oklahoma City", "state": "OK", "yourPrice": 4.1038, "savings": 0.6952, "lat": 36.1903, "lng": -95.9489, "address": "701 South Morgan Road", "zip": "73128", "phone": "(405) 324-5000", "name": "Flying J"}, {"site": "704", "city": "Edmond", "state": "OK", "yourPrice": 4.1038, "savings": 0.5552, "lat": 35.9653, "lng": -97.4889, "address": "4801 NE 122nd St.", "zip": "73013", "phone": "(405) 475-9440", "name": "Flying J"}, {"site": "705", "city": "Sayre", "state": "OK", "yourPrice": 4.1713, "savings": 1.1877, "lat": 35.1403, "lng": -97.6289, "address": "2400 So 4th Route", "zip": "73662", "phone": "(580) 928-2216", "name": "Flying J"}, {"site": "706", "city": "Tulsa", "state": "OK", "yourPrice": 4.0563, "savings": 0.8027, "lat": 36.0403, "lng": -97.3839, "address": "121 North 129 E/I-44 Exit 236", "zip": "74116", "phone": "(918) 437-5477", "name": "Flying J"}, {"site": "707", "city": "Brookville", "state": "PA", "yourPrice": 4.9456, "savings": 1.0534, "lat": 41.5408, "lng": -75.5298, "address": "246 Allegheny Blvd", "zip": "15825", "phone": "(814) 849-2992", "name": "Flying J"}, {"site": "708", "city": "Carlisle", "state": "PA", "yourPrice": 4.8943, "savings": 0.9047, "lat": 39.8158, "lng": -75.9848, "address": "1501 Harrisburg Pike", "zip": "17013", "phone": "(717) 243-6659", "name": "Flying J"}, {"site": "709", "city": "Mill Hall", "state": "PA", "yourPrice": 4.9286, "savings": 0.9604, "lat": 39.3908, "lng": -78.3298, "address": "5609 Nittany Valley Drive", "zip": "17751", "phone": "(570) 726-4080", "name": "Flying J"}, {"site": "710", "city": "New Milford", "state": "PA", "yourPrice": 4.9284, "savings": 1.1706, "lat": 40.7158, "lng": -78.0498, "address": "1623 Oliver Road", "zip": "18834", "phone": "(570) 465-2974", "name": "Flying J"}, {"site": "711", "city": "Blacksburg", "state": "SC", "yourPrice": 4.2437, "savings": 1.1553, "lat": 33.9569, "lng": -79.44, "address": "1011 North Mountain St", "zip": "29702", "phone": "(864) 839-5934", "name": "Flying J"}, {"site": "712", "city": "Columbia", "state": "SC", "yourPrice": 4.3777, "savings": 1.2113, "lat": 33.7569, "lng": -81.26, "address": "5901 Fairfield Road", "zip": "29203", "phone": "(803) 735-9006", "name": "Flying J"}, {"site": "714", "city": "Rock Hill", "state": "SC", "yourPrice": 4.2637, "savings": 1.2953, "lat": 33.1569, "lng": -82.03, "address": "2435 Mount Holly Road", "zip": "29730", "phone": "(803) 328-5700", "name": "Flying J"}, {"site": "716", "city": "Sioux Falls", "state": "SD", "yourPrice": 4.1896, "savings": 1.1694, "lat": 43.9248, "lng": -100.9788, "address": "5201 Granite Lane", "zip": "57107", "phone": "(605) 977-1438", "name": "Flying J"}, {"site": "720", "city": "Fairview", "state": "TN", "yourPrice": 4.1969, "savings": 1.0021, "lat": 34.7478, "lng": -87.7423, "address": "1420 Hwy 96 North", "zip": "37062", "phone": "(615) 799-4116", "name": "Flying J"}, {"site": "722", "city": "Knoxville", "state": "TN", "yourPrice": 4.1963, "savings": 0.9627, "lat": 34.8978, "lng": -88.3723, "address": "800 Watt Road", "zip": "37932", "phone": "(865) 531-7400", "name": "Flying J"}, {"site": "723", "city": "Amarillo", "state": "TX", "yourPrice": 4.2633, "savings": 0.6357, "lat": 30.4795, "lng": -96.8985, "address": "9601 I-40 E Exit 76", "zip": "79118", "phone": "(806) 335-1475", "name": "Flying J"}, {"site": "725", "city": "Baytown", "state": "TX", "yourPrice": 4.2301, "savings": 0.7689, "lat": 30.5545, "lng": -98.0885, "address": "1876 East Freeway", "zip": "77521", "phone": "(281) 424-7706", "name": "Flying J"}, {"site": "726", "city": "Dallas", "state": "TX", "yourPrice": 4.1782, "savings": 1.0208, "lat": 31.6545, "lng": -97.7735, "address": "7425 Bonnie View Road", "zip": "75241", "phone": "(972) 225-3566", "name": "Flying J"}, {"site": "727", "city": "Edinburg", "state": "TX", "yourPrice": 4.2416, "savings": 1.0574, "lat": 30.1795, "lng": -98.0885, "address": "1305 East Monte Cristo Road", "zip": "78539", "phone": "(956) 316-0149", "name": "Flying J"}, {"site": "728", "city": "El Paso", "state": "TX", "yourPrice": 4.5646, "savings": 0.9344, "lat": 30.6545, "lng": -98.2285, "address": "1301 Horizon Blvd", "zip": "79928", "phone": "(915) 852-4141", "name": "Flying J"}, {"site": "729", "city": "Houston", "state": "TX", "yourPrice": 4.2326, "savings": 0.6664, "lat": 31.6795, "lng": -97.7035, "address": "15919 North Freeway", "zip": "77090", "phone": "(281) 893-0423", "name": "Flying J"}, {"site": "730", "city": "Laredo", "state": "TX", "yourPrice": 4.4418, "savings": 0.9572, "lat": 31.3295, "lng": -96.0935, "address": "1011 Beltway Parkway", "zip": "78041", "phone": "(956) 712-3265", "name": "Flying J"}, {"site": "733", "city": "Lubbock", "state": "TX", "yourPrice": 4.4275, "savings": 0.8715, "lat": 30.2795, "lng": -98.3335, "address": "602 4th Street", "zip": "79401", "phone": "(806) 744-0539", "name": "Flying J"}, {"site": "734", "city": "New Caney", "state": "TX", "yourPrice": 4.2451, "savings": 0.8439, "lat": 30.8795, "lng": -99.0685, "address": "23412 Hwy 242", "zip": "77357", "phone": "(281) 689-8065", "name": "Flying J"}, {"site": "735", "city": "Orange", "state": "TX", "yourPrice": 4.1346, "savings": 1.1644, "lat": 30.3795, "lng": -96.8985, "address": "7112 I-10 West", "zip": "77630", "phone": "(409) 883-9465", "name": "Flying J"}, {"site": "736", "city": "Pecos", "state": "TX", "yourPrice": 4.3889, "savings": 1.0101, "lat": 31.7295, "lng": -97.6685, "address": "100 E Pinehurst I20 US Hwy 285", "zip": "79772", "phone": "(432) 445-9436", "name": "Flying J"}, {"site": "737", "city": "San Antonio", "state": "TX", "yourPrice": 4.127, "savings": 1.172, "lat": 31.0545, "lng": -96.7235, "address": "1815 N Foster Road", "zip": "78244", "phone": "(210) 666-2266", "name": "Flying J"}, {"site": "738", "city": "Abilene", "state": "TX", "yourPrice": 4.5138, "savings": 0.6452, "lat": 31.7045, "lng": -97.5985, "address": "I-20 Exit 277 101 N FM 707", "zip": "79563", "phone": "(325) 691-9974", "name": "Flying J"}, {"site": "739", "city": "Waco", "state": "TX", "yourPrice": 4.1989, "savings": 1.0001, "lat": 32.1545, "lng": -97.0735, "address": "2409 So New Road", "zip": "76711", "phone": "(254) 714-0313", "name": "Flying J"}, {"site": "740", "city": "Brookshire", "state": "TX", "yourPrice": 4.2451, "savings": 1.1539, "lat": 31.8545, "lng": -95.9885, "address": "204 South Waller Ave", "zip": "77423", "phone": "(281) 934-4133", "name": "Flying J"}, {"site": "741", "city": "Wichita Falls", "state": "TX", "yourPrice": 4.3692, "savings": 0.7898, "lat": 30.9295, "lng": -98.9635, "address": "2311 Jacksboro Highway", "zip": "76301", "phone": "(940) 720-0598", "name": "Flying J"}, {"site": "742", "city": "Tooele", "state": "UT", "yourPrice": 5.0979, "savings": 0.5011, "lat": 40.9, "lng": -112.2824, "address": "1605 East Saddleback Blvd.", "zip": "84074", "phone": "(801) 508-7400", "name": "Flying J"}, {"site": "743", "city": "Nephi", "state": "UT", "yourPrice": 5.1904, "savings": 0.4086, "lat": 40.75, "lng": -113.0874, "address": "1597 South Main", "zip": "84648", "phone": "(435) 623-2400", "name": "Flying J"}, {"site": "744", "city": "Ogden", "state": "UT", "yourPrice": 5.1104, "savings": 0.3886, "lat": 41.225, "lng": -111.1974, "address": "1172 West 21st Street", "zip": "84401", "phone": "(801) 399-5577", "name": "Flying J"}, {"site": "746", "city": "Salt Lake City", "state": "UT", "yourPrice": 5.1229, "savings": 0.4761, "lat": 40.85, "lng": -111.7224, "address": "2025 S 900 W", "zip": "84116", "phone": "(801) 972-3711", "name": "Flying J"}, {"site": "747", "city": "Springville", "state": "UT", "yourPrice": 5.1404, "savings": 0.4586, "lat": 39.225, "lng": -111.1274, "address": "1460 N 1750 W", "zip": "84663", "phone": "(801) 489-3622", "name": "Flying J"}, {"site": "748", "city": "Willard", "state": "UT", "yourPrice": 5.1104, "savings": 0.3886, "lat": 41.225, "lng": -111.2674, "address": "600 West 750 North", "zip": "84340", "phone": "(435) 723-1010", "name": "Flying J"}, {"site": "749", "city": "Carmel Church", "state": "VA", "yourPrice": 4.3814, "savings": 1.4176, "lat": 37.2943, "lng": -78.975, "address": "24279 Rogers Clark Blvd.", "zip": "22546", "phone": "(804) 448-9047", "name": "Flying J"}, {"site": "750", "city": "Fort Chiswell", "state": "VA", "yourPrice": 4.4707, "savings": 1.4283, "lat": 37.8193, "lng": -77.645, "address": "I-81/I-77 Exit 80", "zip": "24360", "phone": "(276) 637-4115", "name": "Flying J"}, {"site": "752", "city": "Winchester", "state": "VA", "yourPrice": 4.4917, "savings": 1.2073, "lat": 38.5943, "lng": -79.115, "address": "1530 Rest Church Rd", "zip": "22624", "phone": "(540) 678-3641", "name": "Flying J"}, {"site": "754", "city": "Wytheville", "state": "VA", "yourPrice": 4.4707, "savings": 1.4283, "lat": 37.7943, "lng": -78.975, "address": "3249 Chapman Road", "zip": "24382", "phone": "(276) 228-7110", "name": "Flying J"}, {"site": "756", "city": "Black River Falls", "state": "WI", "yourPrice": 4.2291, "savings": 0.5299, "lat": 45.3185, "lng": -90.5615, "address": "780 State Hwy 54", "zip": "54615", "phone": "(715) 284-4341", "name": "Flying J"}, {"site": "758", "city": "Casper", "state": "WY", "yourPrice": 4.3889, "savings": 1.0701, "lat": 41.581, "lng": -108.7025, "address": "41 SE Wyoming Blvd.", "zip": "82609", "phone": "(307) 473-1750", "name": "Flying J"},