{
 "5|OK": {
  "lat": 35.8595,
  "lng": -97.9323,
  "address": "203 S Main St",
  "zip": "73750",
  "phone": "(405) 375-5019",
  "interstate": "US Hwy-81 · E Sheridan Ave"
 },
 "7|CO": {
  "lat": 38.5439,
  "lng": -106.9344,
  "address": "108 S 12th St",
  "zip": "81230",
  "phone": "(970) 641-4045"
 },
 "9|AZ": {
  "lat": 31.9622,
  "lng": -110.3466,
  "address": "640 State Road 90",
  "zip": "85602",
  "phone": "(520) 586-2053",
  "interstate": "I-10 · Exit 302"
 },
 "10|OK": {
  "lat": 34.6821,
  "lng": -99.9145,
  "address": "408 E Broadway St",
  "zip": "73550",
  "phone": "(580) 688-2464"
 },
 "11|KS": {
  "lat": 38.361,
  "lng": -98.754,
  "address": "1221 10th Street",
  "zip": "67530",
  "phone": "(620) 792-6731",
  "interstate": "US Hwy-56 · Walnut St"
 },
 "12|CO": {
  "lat": 37.9877,
  "lng": -103.5386,
  "address": "308 E 1st St",
  "zip": "81050",
  "phone": "(719) 384-8932"
 },
 "13|OK": {
  "lat": 34.6567,
  "lng": -97.9581,
  "address": "811 N Broadway St",
  "zip": "73055",
  "phone": "(580) 658-5798"
 },
 "15|OK": {
  "lat": 36.2723,
  "lng": -98.4801,
  "address": "401 N Main St",
  "zip": "73737",
  "phone": "(580) 227-3363"
 },
 "16|OK": {
  "lat": 36.4178,
  "lng": -99.3847,
  "address": "3020 NW Williams Ave.",
  "zip": "73801",
  "phone": "(580) 256-3503"
 },
 "18|OK": {
  "lat": 36.7972,
  "lng": -98.6502,
  "address": "607 E. Oklahoma Blvd.",
  "zip": "73717",
  "phone": "(580) 327-4500"
 },
 "19|OK": {
  "lat": 36.6772,
  "lng": -101.4813,
  "address": "101 SE 2nd St",
  "zip": "73942",
  "phone": "(580) 338-2414",
  "interstate": "US Hwy-54/412 · S Main St"
 },
 "21|OK": {
  "lat": 36.8098,
  "lng": -100.5191,
  "address": "802 Douglas Ave",
  "zip": "73932",
  "phone": "(580) 625-4220",
  "interstate": "US Hwy-270 · Eighth St"
 },
 "22|NM": {
  "lat": 36.4454,
  "lng": -103.1799,
  "address": "703 S 1st St",
  "zip": "88415",
  "phone": "(575) 374-9548",
  "interstate": "Hwy 87 · Locust St"
 },
 "23|CO": {
  "lat": 38.0957,
  "lng": -102.6203,
  "address": "605 N Main St",
  "zip": "81052",
  "phone": "(719) 336-5202",
  "interstate": "Hwy 287/50 · Larmar Canal Rd"
 },
 "24|KS": {
  "lat": 37.0322,
  "lng": -100.9279,
  "address": "208 West Pancake Blvd.",
  "zip": "67901",
  "phone": "(620) 624-2910",
  "interstate": "US Hwy-54 · Pershing Ave"
 },
 "28|OK": {
  "lat": 35.0148,
  "lng": -97.3667,
  "address": "225 North Green Ave.",
  "zip": "73080",
  "phone": "(405) 527-9491",
  "interstate": "OK Hwy-74 · Adams St"
 },
 "29|OK": {
  "lat": 34.5007,
  "lng": -97.9475,
  "address": "202 W Main St",
  "zip": "73533",
  "phone": "(580) 252-8900"
 },
 "30|CO": {
  "lat": 37.5783,
  "lng": -106.1372,
  "address": "1537 Grande Ave.",
  "zip": "81144",
  "phone": "(719) 852-5032"
 },
 "31|OK": {
  "lat": 35.412,
  "lng": -99.416,
  "address": "1001 W 3rd St",
  "zip": "73644",
  "phone": "(580) 225-5931"
 },
 "32|KS": {
  "lat": 37.6462,
  "lng": -98.7221,
  "address": "1412 E 1st St",
  "zip": "67124",
  "phone": "(620) 672-5784",
  "interstate": "US Hwy-54/400 · Country Club Rd"
 },
 "33|OK": {
  "lat": 34.8766,
  "lng": -99.5029,
  "address": "301 N Louis Tittle Ave",
  "zip": "73554",
  "phone": "(580) 782-2603"
 },
 "36|OK": {
  "lat": 36.8414,
  "lng": -99.6301,
  "address": "721 N Hoy St",
  "zip": "73834",
  "phone": "(580) 735-2201"
 },
 "37|CO": {
  "lat": 37.4028,
  "lng": -102.616,
  "address": "1100 Main St",
  "zip": "81073",
  "phone": "(719) 523-4100"
 },
 "38|CO": {
  "lat": 38.0886,
  "lng": -102.616,
  "address": "301 E Olive St",
  "zip": "81052",
  "phone": "(719) 336-5382"
 },
 "39|KS": {
  "lat": 37.9803,
  "lng": -101.7503,
  "address": "208 E Highway 50",
  "zip": "67878",
  "phone": "(620) 384-7796"
 },
 "46|OK": {
  "lat": 36.859,
  "lng": -101.209,
  "address": "201 W Highway 54",
  "zip": "73945",
  "phone": "(580) 652-2001",
  "interstate": "Hwy 54 · Hwy 94"
 },
 "47|OK": {
  "lat": 36.433,
  "lng": -99.4152,
  "address": "2615 Oklahoma",
  "zip": "73801",
  "phone": "(580) 254-3644",
  "interstate": "US Hwy-183/270/412 · 28th St"
 },
 "48|OK": {
  "lat": 36.1025,
  "lng": -97.8989,
  "address": "721 S Main St",
  "zip": "73742",
  "phone": "(405) 853-6636",
  "interstate": "US Hwy-81 · E 7th St"
 },
 "49|OK": {
  "lat": 35.3419,
  "lng": -96.9294,
  "address": "1005 N Kickapoo Ave",
  "zip": "74801",
  "phone": "(405) 275-3263"
 },
 "50|OK": {
  "lat": 34.7399,
  "lng": -97.2228,
  "address": "309 W Grant Ave",
  "zip": "73075",
  "phone": "(405) 238-5861",
  "interstate": "US Hwy-77 · Walnut St"
 },
 "51|OK": {
  "lat": 35.2604,
  "lng": -96.9362,
  "address": "100 E Walnut St",
  "zip": "74873",
  "phone": "(405) 598-6000"
 },
 "52|OK": {
  "lat": 34.7768,
  "lng": -96.6695,
  "address": "300 N Mississippi Ave",
  "zip": "74820",
  "phone": "(580) 332-4294"
 },
 "54|OK": {
  "lat": 34.1741,
  "lng": -97.1409,
  "address": "930 W Broadway St",
  "zip": "73401",
  "phone": "(580) 223-6362"
 },
 "55|OK": {
  "lat": 34.3682,
  "lng": -97.9637,
  "address": "120 S. Rodeo Dr.",
  "zip": "73529",
  "phone": "(580) 439-6256"
 },
 "56|OK": {
  "lat": 34.6401,
  "lng": -97.9583,
  "address": "701 S Broadway St",
  "zip": "73055",
  "phone": "(580) 658-2362"
 },
 "57|OK": {
  "lat": 35.4394,
  "lng": -95.9768,
  "address": "413 E Main St",
  "zip": "74437",
  "phone": "(918) 652-8934"
 },
 "58|KS": {
  "lat": 37.7537,
  "lng": -100.0288,
  "address": "1108 W Wyatt Earp Blvd",
  "zip": "67801",
  "phone": "(620) 225-0654",
  "interstate": "W Wyatt Earp Blvd · 10th Ave"
 },
 "59|KS": {
  "lat": 39.7555,
  "lng": -99.3182,
  "address": "709 East State Street",
  "zip": "67661",
  "phone": "(785) 543-5813",
  "interstate": "US Hwy-36/183 · 7th St"
 },
 "60|KS": {
  "lat": 39.8389,
  "lng": -99.8926,
  "address": "303 W Holme St",
  "zip": "67654",
  "phone": "(785) 877-5494",
  "interstate": "US Hwy-36 · 2nd Street"
 },
 "61|KS": {
  "lat": 39.3975,
  "lng": -101.0479,
  "address": "265 W 4th St",
  "zip": "67701",
  "phone": "(785) 462-7339",
  "interstate": "US Hwy-24 · Mission Ridge Ave"
 },
 "62|KS": {
  "lat": 37.7531,
  "lng": -100.0118,
  "address": "400 E Wyatt Earp Blvd",
  "zip": "67801",
  "phone": "(620) 225-0641",
  "interstate": "US Hwy-50 BUS · Avenue C"
 },
 "68|OK": {
  "lat": 34.0021,
  "lng": -96.3733,
  "address": "1223 N 1st Ave",
  "zip": "74701",
  "phone": "(580) 924-9304"
 },
 "69|OK": {
  "lat": 33.9924,
  "lng": -96.3815,
  "address": "524 W Main St",
  "zip": "74701",
  "phone": "(580) 924-9287"
 },
 "74|OK": {
  "lat": 34.8373,
  "lng": -97.6088,
  "address": "502 W Cherokee St",
  "zip": "73052",
  "phone": "(405) 756-4826",
  "interstate": "Hwy 19/76 · NW 5th St"
 },
 "78|OK": {
  "lat": 35.9156,
  "lng": -94.9689,
  "address": "111 E Downing St",
  "zip": "74464",
  "phone": "(918) 456-0385"
 },
 "80|OK": {
  "lat": 34.7749,
  "lng": -96.6862,
  "address": "524 W Main St",
  "zip": "74820",
  "phone": "(580) 436-1292"
 },
 "84|OK": {
  "lat": 34.0867,
  "lng": -96.7698,
  "address": "411 S 1st St",
  "zip": "73446",
  "phone": "(580) 795-2612"
 },
 "85|OK": {
  "lat": 35.8655,
  "lng": -97.4259,
  "address": "1223 S Division St",
  "zip": "73044",
  "phone": "(405) 282-1884",
  "interstate": "I-35 · 153/S Division St"
 },
 "86|OK": {
  "lat": 35.0374,
  "lng": -97.9373,
  "address": "1326 S 4th St",
  "zip": "73018",
  "phone": "(405) 222-2355"
 },
 "88|OK": {
  "lat": 35.5075,
  "lng": -97.7597,
  "address": "1016 W Main St",
  "zip": "73099",
  "phone": "(405) 354-9772"
 },
 "94|OK": {
  "lat": 34.0223,
  "lng": -94.74,
  "address": "504 S Park Dr",
  "zip": "74728",
  "phone": "(580) 584-3813"
 },
 "95|OK": {
  "lat": 35.0519,
  "lng": -97.9458,
  "address": "1001 W Choctaw Ave",
  "zip": "73018",
  "phone": "(405) 222-4452"
 },
 "97|KS": {
  "lat": 37.0827,
  "lng": -97.0396,
  "address": "1712 N Summit St",
  "zip": "67005",
  "phone": "(620) 442-9302",
  "interstate": "Co Rd-27/Summit St · Virginia Ave"
 },
 "114|OK": {
  "lat": 35.5086,
  "lng": -97.9376,
  "address": "1655 E Highway 66",
  "zip": "73036",
  "phone": "(405) 262-8813"
 },
 "123|OK": {
  "lat": 35.5797,
  "lng": -97.5498,
  "address": "10875 N. Pennsylvania Ave.",
  "zip": "73120",
  "phone": "(405) 752-4224"
 },
 "200|TX": {
  "lat": 35.1919,
  "lng": -101.7609,
  "address": "6930 I-40 E.",
  "zip": "79120",
  "phone": "(806) 373-7775",
  "interstate": "I-40 · 74/Whitaker Rd"
 },
 "201|OK": {
  "lat": 35.423,
  "lng": -99.3725,
  "address": "2703 East Highway 66",
  "zip": "73644",
  "phone": "(580) 225-9162",
  "interstate": "I-40 · Exit 41"
 },
 "203|OK": {
  "lat": 35.4577,
  "lng": -97.6886,
  "address": "800 S. Morgan Rd.",
  "zip": "73128",
  "phone": "(405) 789-0087",
  "interstate": "I-40 · 140/S Morgan Rd"
 },
 "204|OK": {
  "lat": 35.3058,
  "lng": -95.5882,
  "address": "1601 Birkes Rd.",
  "zip": "74432",
  "phone": "(918) 689-9444",
  "interstate": "US Hwy-69 · US Bus-69"
 },
 "205|OK": {
  "lat": 35.5941,
  "lng": -97.4367,
  "address": "12225 N I-35",
  "zip": "73131",
  "phone": "(405) 478-5766",
  "interstate": "I-35 · Exit 137"
 },
 "206|AL": {
  "lat": 30.6544,
  "lng": -87.7594,
  "address": "126 E Flying K Rd",
  "zip": "36551",
  "phone": "(251) 964-2090",
  "interstate": "I-10 · Exit 44"
 },
 "207|CA": {
  "lat": 33.7174,
  "lng": -116.1713,
  "address": "45-761 Dillon Rd.",
  "zip": "92236",
  "phone": "(760) 775-3401",
  "interstate": "I-10 · Exit 146"
 },
 "208|MS": {
  "lat": 32.6041,
  "lng": -90.0726,
  "address": "1545 Peace St.",
  "zip": "39046",
  "phone": "(601) 859-9370",
  "interstate": "I-55 · Exit 119"
 },
 "209|LA": {
  "lat": 32.4445,
  "lng": -93.983,
  "address": "9600 Highway 80 W",
  "zip": "71033",
  "phone": "(318) 938-8986",
  "interstate": "I-20 · Exit 3"
 },
 "210|NM": {
  "lat": 35.1073,
  "lng": -106.6489,
  "address": "2200 6th St NW",
  "zip": "87102",
  "phone": "(505) 842-6514",
  "interstate": "I-40 · Exit 158"
 },
 "211|OK": {
  "lat": 35.3779,
  "lng": -97.4959,
  "address": "845 SE 89th St",
  "zip": "73149",
  "phone": "(405) 632-3566",
  "interstate": "I-35 · Exit 120"
 },
 "213|OK": {
  "lat": 36.651,
  "lng": -97.342,
  "address": "16501 W Fountain Rd",
  "zip": "74653",
  "phone": "(580) 628-5335",
  "interstate": "I-35 · Exit 211"
 },
 "214|TX": {
  "lat": 31.6598,
  "lng": -106.2374,
  "address": "1300 Horizon Blvd.",
  "zip": "79928",
  "phone": "(915) 852-4021",
  "interstate": "I-10 · Exit 37"
 },
 "215|NM": {
  "lat": 35.5057,
  "lng": -108.8339,
  "address": "3380 W. 66th",
  "zip": "87301",
  "phone": "(505) 863-3849",
  "interstate": "I-40 · Exit 16"
 },
 "216|TX": {
  "lat": 32.4829,
  "lng": -97.0111,
  "address": "1501 W Highway 287",
  "zip": "76065",
  "phone": "(972) 775-2820",
  "interstate": "US Hwy-287 · US Hwy-67 N/US Bus-287"
 },
 "218|OK": {
  "lat": 35.879,
  "lng": -97.3961,
  "address": "2530 E Noble Ave",
  "zip": "73044",
  "phone": "(405) 260-0850",
  "interstate": "I-35 · Exit 157"
 },
 "219|OK": {
  "lat": 35.3816,
  "lng": -96.6703,
  "address": "11268 Highway 99",
  "zip": "74868",
  "phone": "(405) 382-7714",
  "interstate": "I-40 · Exit 200"
 },
 "220|WY": {
  "lat": 41.0982,
  "lng": -104.8486,
  "address": "3305 W. College Dr.",
  "zip": "82007",
  "phone": "(307) 632-7902",
  "interstate": "I-25 · Exit 7"
 },
 "221|OH": {
  "lat": 39.9684,
  "lng": -81.9032,
  "address": "605 Sonora Rd.",
  "zip": "43701",
  "phone": "(740) 453-8506",
  "interstate": "I-70 · Exit 160"
 },
 "222|IN": {
  "lat": 39.8709,
  "lng": -84.9333,
  "address": "2698 US 35 N.",
  "zip": "47374",
  "phone": "(765) 939-8136",
  "interstate": "I-70 · 149B @ Hwy 35"
 },
 "223|CA": {
  "lat": 37.7552,
  "lng": -121.1415,
  "address": "1553 Colony Rd.",
  "zip": "95366",
  "phone": "(209) 599-0740",
  "interstate": "CA Hwy-99 · Exit 237B"
 },
 "225|AL": {
  "lat": 31.4191,
  "lng": -87.0076,
  "address": "16101 Highway 84",
  "zip": "36401",
  "phone": "(251) 578-4496",
  "interstate": "I-65 · Exit 93"
 },
 "226|CO": {
  "lat": 38.3422,
  "lng": -104.623,
  "address": "6470 N. Elizabeth St",
  "zip": "81008",
  "phone": "(719) 253-1338",
  "interstate": "I-25 · Exit 104"
 },
 "227|AL": {
  "lat": 33.2788,
  "lng": -87.0989,
  "address": "22183 Highway 216",
  "zip": "35111",
  "phone": "(205) 477-9423",
  "interstate": "I-20 · Exit 100"
 },
 "228|FL": {
  "lat": 28.1553,
  "lng": -81.8007,
  "address": "1800 Highway 559",
  "zip": "33868",
  "phone": "(863) 984-7030",
  "interstate": "I-4 · Exit 44"
 },
 "229|TX": {
  "lat": 35.2188,
  "lng": -101.3815,
  "address": "9701 I-40",
  "zip": "79068",
  "phone": "(806) 537-3393",
  "interstate": "I-40 · Exit 96"
 },
 "230|CA": {
  "lat": 35.617,
  "lng": -119.6589,
  "address": "21948 Highway 46",
  "zip": "93249",
  "phone": "(661) 797-1800",
  "interstate": "I-5 · Exit 278"
 },
 "231|TX": {
  "lat": 32.0095,
  "lng": -97.0935,
  "address": "1501 Corsicana Hwy",
  "zip": "76645",
  "phone": "(254) 582-2101",
  "interstate": "I-35 · Exit 368A"
 },
 "233|TX": {
  "lat": 30.0645,
  "lng": -95.9056,
  "address": "30710 FM 2920 Rd",
  "zip": "77484",
  "phone": "(936) 372-3449",
  "interstate": "Hwy 290 · FM 2920"
 },
 "234|TX": {
  "lat": 29.7798,
  "lng": -95.8819,
  "address": "612 Pederson Rd.",
  "zip": "77494",
  "phone": "(281) 391-5556",
  "interstate": "I-10 · Exit 737"
 },
 "235|MO": {
  "lat": 39.7224,
  "lng": -94.7869,
  "address": "4601 S. Leonard Rd.",
  "zip": "64507",
  "phone": "(816) 279-8870",
  "interstate": "I-29 · Exit 44"
 },
 "236|AR": {
  "lat": 34.7862,
  "lng": -92.1256,
  "address": "11801 I-40 Fwy",
  "zip": "72117",
  "phone": "(501) 945-5400",
  "interstate": "I-40 · Exit 161"
 },
 "237|LA": {
  "lat": 32.3878,
  "lng": -91.1977,
  "address": "227 Highway 65 S",
  "zip": "71282",
  "phone": "(318) 574-6413",
  "interstate": "I-20 · Exit 171"
 },
 "238|KY": {
  "lat": 37.9795,
  "lng": -85.6944,
  "address": "1090 Cedar Grove Rd.",
  "zip": "40165",
  "phone": "(502) 543-7000",
  "interstate": "I-65 · Exit 116"
 },
 "239|VA": {
  "lat": 36.9514,
  "lng": -80.8831,
  "address": "145 Major Grahams Rd.",
  "zip": "24360",
  "phone": "(276) 637-3124",
  "interstate": "I-81 · Exit 84"
 },
 "240|LA": {
  "lat": 30.4455,
  "lng": -91.2427,
  "address": "751 Lobdell Hwy S.",
  "zip": "70767",
  "phone": "(225) 389-9111",
  "interstate": "I-10 · 151 @ Hwy 415"
 },
 "242|TX": {
  "lat": 29.311,
  "lng": -98.6178,
  "address": "11361 S. I-35",
  "zip": "78073",
  "phone": "(210) 623-2329",
  "interstate": "I-35 · 144 @ Fischer Rd"
 },
 "243|LA": {
  "lat": 30.2531,
  "lng": -93.0131,
  "address": "1118 Lowe Grout",
  "zip": "70647",
  "phone": "(337) 582-4528",
  "interstate": "I-10 · 43 @ Hwy 383"
 },
 "244|TN": {
  "lat": 35.6792,
  "lng": -88.7424,
  "address": "2050 Highway 70 E",
  "zip": "38305",
  "phone": "(731) 422-0901",
  "interstate": "I-40 · 87 @ Hwy 70"
 },
 "245|OK": {
  "lat": 35.3778,
  "lng": -97.5736,
  "address": "3233 SW 89th St",
  "zip": "73159",
  "phone": "(405) 686-1053",
  "interstate": "I-44 · Exit 113"
 },
 "246|NV": {
  "lat": 39.618,
  "lng": -119.2664,
  "address": "825 Commerce Center Dr.",
  "zip": "89408",
  "phone": "(775) 575-2200",
  "interstate": "I-80 · 46 @ Hwy 95A"
 },
 "247|TX": {
  "lat": 34.7231,
  "lng": -100.5337,
  "address": "219 S. Boykin Drive",
  "zip": "79245",
  "phone": "(806) 259-2300",
  "interstate": "Hwy 287 · Hwy 256"
 },
 "248|OK": {
  "lat": 35.5183,
  "lng": -98.8709,
  "address": "10331 N. 2310 Rd.",
  "zip": "73601",
  "phone": "(580) 323-1022",
  "interstate": "I-40 · Exit 71"
 },
 "249|IL": {
  "lat": 39.961,
  "lng": -89.5623,
  "address": "991 Ann Rutledge Rd.",
  "zip": "62693",
  "phone": "(217) 566-3448",
  "interstate": "I-55 · 109 @ Hwy 123"
 },
 "250|TX": {
  "lat": 35.1878,
  "lng": -102.0113,
  "address": "14701 I-40 W.",
  "zip": "79124",
  "phone": "(806) 358-2551",
  "interstate": "I-40 · Exit 60"
 },
 "252|OK": {
  "lat": 35.3818,
  "lng": -97.0884,
  "address": "12601 McLoud Rd.",
  "zip": "74851",
  "phone": "(405) 386-7536",
  "interstate": "I-40 · Exit 176"
 },
 "253|OK": {
  "lat": 35.2239,
  "lng": -99.8696,
  "address": "901 N. Sheb Wooley Ave.",
  "zip": "73645",
  "phone": "(580) 526-3345",
  "interstate": "I-40 · Exit 7"
 },
 "254|IN": {
  "lat": 39.6158,
  "lng": -86.4785,
  "address": "2299 Koger St",
  "zip": "46158",
  "phone": "(317) 539-5473",
  "interstate": "I-70 · Exit 59"
 },
 "255|OK": {
  "lat": 35.486,
  "lng": -95.1493,
  "address": "214 South Hwy 100",
  "zip": "74470",
  "phone": "(918) 464-2865",
  "interstate": "I-40 · Exit 287"
 },
 "256|TX": {
  "lat": 31.0401,
  "lng": -104.8193,
  "address": "810 E Broadway",
  "zip": "79855",
  "phone": "(432) 283-2881",
  "interstate": "I-10 · Exit 140B"
 },
 "257|NM": {
  "lat": 35.1833,
  "lng": -107.8998,
  "address": "257 Horizon Blvd",
  "zip": "87021",
  "phone": "(505) 287-2981",
  "interstate": "I-40 · Exit 79"
 },
 "258|KS": {
  "lat": 38.5728,
  "lng": -95.2655,
  "address": "203 E 27th St",
  "zip": "66067",
  "phone": "(785) 242-2882",
  "interstate": "I-35 · Exit 183"
 },
 "259|NM": {
  "lat": 32.2694,
  "lng": -106.9225,
  "address": "8993 Robert Larson Blvd",
  "zip": "88007",
  "phone": "(575) 527-5102",
  "interstate": "I-10 · Exit 132"
 },
 "260|OK": {
  "lat": 35.1836,
  "lng": -97.499,
  "address": "5317 SE 44th St",
  "zip": "73072",
  "phone": "(405) 364-0059",
  "interstate": "I-35 · Exit 106"
 },
 "261|TX": {
  "lat": 35.1177,
  "lng": -101.9072,
  "address": "8615 Canyon Dr",
  "zip": "79110",
  "phone": "(806) 352-9501",
  "interstate": "I-27 · 115 NB/116 SB"
 },
 "262|NM": {
  "lat": 35.1586,
  "lng": -103.7013,
  "address": "1900 Mountain Rd.",
  "zip": "88401",
  "phone": "(575) 461-1900",
  "interstate": "I-40 · Exit 333"
 },
 "263|OK": {
  "lat": 34.7138,
  "lng": -98.4016,
  "address": "24169 State Highway 49",
  "zip": "73507",
  "phone": "(580) 529-2882",
  "interstate": "I-44 · Exit 45"
 },
 "264|TX": {
  "lat": 29.6537,
  "lng": -97.5923,
  "address": "190 US Highway 90",
  "zip": "78648",
  "phone": "(830) 875-5667",
  "interstate": "I-10 · Exit 632"
 },
 "265|AZ": {
  "lat": 32.8064,
  "lng": -111.6721,
  "address": "5000 N Sunland Gin Rd",
  "zip": "85131",
  "phone": "(520) 423-2015",
  "interstate": "I-10 · Exit 200"
 },
 "266|OK": {
  "lat": 34.1882,
  "lng": -97.1708,
  "address": "3201 12th Ave NW",
  "zip": "73401",
  "phone": "(580) 226-0973",
  "interstate": "I-35 · Exit 32"
 },
 "267|AR": {
  "lat": 35.1729,
  "lng": -92.7433,
  "address": "1600 N. Hwy 95",
  "zip": "72110",
  "phone": "(501) 354-6701",
  "interstate": "I-40 · Exit 107"
 },
 "268|OK": {
  "lat": 34.3669,
  "lng": -96.141,
  "address": "1935 S Mississippi Ave",
  "zip": "74525",
  "phone": "(580) 889-9394",
  "interstate": "US Hwy-69 · Redbud Ln"
 },
 "269|TX": {
  "lat": 33.8867,
  "lng": -98.4688,
  "address": "1124 Central Freeway E.",
  "zip": "76301",
  "phone": "(940) 766-6098",
  "interstate": "Hwy 287/281 · Windthorst Rd."
 },
 "270|TX": {
  "lat": 32.4417,
  "lng": -98.6945,
  "address": "6950 I-20",
  "zip": "76470",
  "phone": "(254) 647-3700",
  "interstate": "I-20 · Exit 349"
 },
 "271|AR": {
  "lat": 35.5115,
  "lng": -93.8223,
  "address": "2229 N 3rd Street",
  "zip": "72949",
  "phone": "(479) 667-5891",
  "interstate": "I-40 · Exit 37"
 },
 "272|AZ": {
  "lat": 35.1993,
  "lng": -113.904,
  "address": "6035 E. Minerva Lane",
  "zip": "86401",
  "phone": "(928) 681-4405",
  "interstate": "I-40 · Exit 59"
 },
 "273|TX": {
  "lat": 32.7429,
  "lng": -97.7428,
  "address": "2605 E Bankhead Hwy",
  "zip": "76087",
  "phone": "(817) 594-2755",
  "interstate": "I-20 · Exit 410"
 },
 "274|OK": {
  "lat": 35.4209,
  "lng": -96.3006,
  "address": "102 W. Coplin St",
  "zip": "74859",
  "phone": "(918) 623-2024",
  "interstate": "I-40 · Exit 221"
 },
 "275|AR": {
  "lat": 34.9865,
  "lng": -90.9052,
  "address": "1010 N Main St",
  "zip": "72372",
  "phone": "(870) 581-5004",
  "interstate": "I-40 · Exit 233"
 },
 "276|NM": {
  "lat": 32.3539,
  "lng": -108.7356,
  "address": "900 W. Motel Dr.",
  "zip": "88045",
  "phone": "(575) 542-8462",
  "interstate": "I-10 · 20 WB/20B EB"
 },
 "277|AR": {
  "lat": 33.8288,
  "lng": -93.3948,
  "address": "116 Ron Harrod Rd",
  "zip": "71857",
  "phone": "(870) 887-1744",
  "interstate": "I-30 · Exit 46"
 },
 "278|AZ": {
  "lat": 34.9548,
  "lng": -110.3112,
  "address": "4703 Main St.",
  "zip": "86032",
  "phone": "(928) 288-3726",
  "interstate": "I-40 · Exit 277"
 },
 "279|TX": {
  "lat": 33.1639,
  "lng": -95.218,
  "address": "215 E. I-30 N. Service Rd.",
  "zip": "75457",
  "phone": "(903) 537-7696",
  "interstate": "I-30 · Exit 147"
 },
 "280|AZ": {
  "lat": 33.4313,
  "lng": -112.5917,
  "address": "1610 S Miller Rd",
  "zip": "85326",
  "phone": "(623) 386-6926",
  "interstate": "I-10 · Exit 114"
 },
 "281|TX": {
  "lat": 32.5987,
  "lng": -97.3176,
  "address": "200 Garden Acres Dr.",
  "zip": "76140",
  "phone": "(817) 293-5118",
  "interstate": "I-35W · Exit 40"
 },
 "282|MO": {
  "lat": 37.0132,
  "lng": -94.544,
  "address": "4013 Highway 43",
  "zip": "64804",
  "phone": "(417) 206-0684",
  "interstate": "I-44 · Exit 4"
 },
 "283|TX": {
  "lat": 32.9182,
  "lng": -96.4193,
  "address": "1990 E. I-30",
  "zip": "75075",
  "phone": "(972) 722-3178",
  "interstate": "I-30 · Exit 70"
 },
 "284|TX": {
  "lat": 26.3859,
  "lng": -98.1412,
  "address": "8420 N Expressway 281",
  "zip": "78542",
  "phone": "(956) 316-1782",
  "interstate": "Hwy 281 · FM 2812"
 },
 "285|NM": {
  "lat": 34.9467,
  "lng": -104.6377,
  "address": "1028 State Highway 156",
  "zip": "88435",
  "phone": "(575) 472-1160",
  "interstate": "I-40 · Exit 277"
 },
 "286|AZ": {
  "lat": 33.6573,
  "lng": -114.2412,
  "address": "760 S. Quartzsite Blvd.",
  "zip": "85346",
  "phone": "(928) 927-8570",
  "interstate": "I-10 · Exit 17"
 },
 "287|TX": {
  "lat": 32.5083,
  "lng": -95.6425,
  "address": "1221 S. Oak St",
  "zip": "75790",
  "phone": "(903) 502-6008",
  "interstate": "I-20 · Exit 540"
 },
 "288|TX": {
  "lat": 31.7282,
  "lng": -96.1827,
  "address": "299 I-45",
  "zip": "75840",
  "phone": "(903) 389-3967",
  "interstate": "I-45 · Exit 198"
 },
 "289|LA": {
  "lat": 32.582,
  "lng": -93.2488,
  "address": "13510 Industrial Drive",
  "zip": "71055",
  "phone": "(318) 371-3790",
  "interstate": "I-20 · Exit 49"
 },
 "290|TX": {
  "lat": 31.3285,
  "lng": -94.6897,
  "address": "1003 S. Medford Dr.",
  "zip": "75901",
  "phone": "(936) 637-4928",
  "interstate": "US Hwy 59/69/Loop 287 · FM 841"
 },
 "291|KY": {
  "lat": 37.8432,
  "lng": -84.3245,
  "address": "3799 Colonel Rd.",
  "zip": "40475",
  "phone": "(859) 624-0882",
  "interstate": "I-75 · Exit 95"
 },
 "292|IL": {
  "lat": 41.1142,
  "lng": -88.4153,
  "address": "12 W. Northbrook Drive",
  "zip": "60420",
  "phone": "(815) 584-9545",
  "interstate": "I-55 · Exit 220"
 },
 "293|TX": {
  "lat": 30.3547,
  "lng": -95.0913,
  "address": "107 FM 2025 Rd",
  "zip": "77328",
  "phone": "(281) 593-0239",
  "interstate": "I-69 · FM 2025"
 },
 "294|TX": {
  "lat": 32.6408,
  "lng": -96.8393,
  "address": "8800 S. Polk Street",
  "zip": "75232",
  "phone": "(972) 224-5970",
  "interstate": "I-20 · Exit 466"
 },
 "295|OK": {
  "lat": 36.1635,
  "lng": -95.343,
  "address": "4564 W. 590",
  "zip": "74337",
  "phone": "(918) 476-4691",
  "interstate": "Hwy 412 · Hwy 69"
 },
 "296|AZ": {
  "lat": 32.9443,
  "lng": -112.7333,
  "address": "820 W Pima St",
  "zip": "85337",
  "phone": "(928) 683-2210",
  "interstate": "I-8 · Exit 115"
 },
 "297|TX": {
  "lat": 28.9889,
  "lng": -96.6254,
  "address": "1509 E. Rose St.",
  "zip": "77957",
  "phone": "(361) 782-6700",
  "interstate": "Hwy 59 · FM 407"
 },
 "298|TX": {
  "lat": 28.0456,
  "lng": -99.3488,
  "address": "28527 I-35",
  "zip": "78019",
  "phone": "(956) 948-7044",
  "interstate": "I-35 · Exit 39"
 },
 "299|TX": {
  "lat": 33.345,
  "lng": -96.5842,
  "address": "1701 US Highway 75",
  "zip": "75409",
  "phone": "(972) 924-3683",
  "interstate": "Hwy 75 · Exit 48"
 },
 "300|CO": {
  "lat": 39.7412,
  "lng": -104.4347,
  "address": "1191 S. 1st Street",
  "zip": "80102",
  "phone": "(303) 644-3585",
  "interstate": "I-70 · Exit 304"
 },
 "301|ID": {
  "lat": 47.7112,
  "lng": -117.0041,
  "address": "4208 W Expo Pkwy",
  "zip": "83854",
  "phone": "(208) 773-4577",
  "interstate": "I-90 · Exit 2"
 },
 "302|OK": {
  "lat": 36.7292,
  "lng": -102.5003,
  "address": "1100 East Main Street",
  "zip": "73933",
  "phone": "(580) 544-4431",
  "interstate": "Hwy 287 · Foreman Ave"
 },
 "303|KY": {
  "lat": 38.1522,
  "lng": -85.0702,
  "address": "1940 Waddy Road",
  "zip": "40076",
  "phone": "(502) 829-0157",
  "interstate": "I-64 · Exit 43"
 },
 "304|AL": {
  "lat": 33.9333,
  "lng": -86.1912,
  "address": "905 Steele Station Rd.",
  "zip": "35987",
  "phone": "(256) 538-1964",
  "interstate": "I-59 · Exit 174"
 },
 "305|VA": {
  "lat": 38.9656,
  "lng": -78.4395,
  "address": "1015 Mount Olive Rd",
  "zip": "22660",
  "phone": "(540) 436-8048",
  "interstate": "I-81 · Exit 291"
 },
 "307|GA": {
  "lat": 33.2081,
  "lng": -84.0585,
  "address": "115 Truck Stop Way",
  "zip": "30233",
  "phone": "(678) 752-0041",
  "interstate": "I-75 · Exit 201"
 },
 "308|NC": {
  "lat": 35.6579,
  "lng": -81.9634,
  "address": "3308 Hwy 226 S.",
  "zip": "28752",
  "phone": "(828) 652-3422",
  "interstate": "I-40 · Exit 86"
 },
 "309|NE": {
  "lat": 40.8189,
  "lng": -97.9983,
  "address": "1539 Madison Ave.",
  "zip": "68818",
  "phone": "(402) 694-2802",
  "interstate": "I-80 · Exit 332"
 },
 "310|WY": {
  "lat": 41.6759,
  "lng": -107.9825,
  "address": "314 Kelly Rd",
  "zip": "82336",
  "phone": "(307) 324-0087",
  "interstate": "I-80 · Exit 173"
 },
 "311|GA": {
  "lat": 33.6913,
  "lng": -85.1895,
  "address": "523 Atlantic Ave.",
  "zip": "30182",
  "phone": "(770) 824-5040",
  "interstate": "I-20 · Exit 9"
 },
 "312|OR": {
  "lat": 43.1505,
  "lng": -123.3679,
  "address": "280 Grant Smith Rd",
  "zip": "97471",
  "phone": "(541) 679-1916",
  "interstate": "I-5 · Exit 119"
 },
 "313|MO": {
  "lat": 36.7582,
  "lng": -89.5413,
  "address": "100 Love’s Industrial Dr.",
  "zip": "63867",
  "phone": "(573) 471-4944",
  "interstate": "I-55 · Exit 58"
 },
 "314|TN": {
  "lat": 35.7242,
  "lng": -86.3197,
  "address": "6137 Epps Mill Rd.",
  "zip": "37037",
  "phone": "(615) 904-7303",
  "interstate": "I-24 · Exit 89"
 },
 "315|TX": {
  "lat": 29.7986,
  "lng": -95.269,
  "address": "3940 N McCarty St",
  "zip": "77013",
  "phone": "(713) 670-0235",
  "interstate": "Loop 610 · Exit 24"
 },
 "316|FL": {
  "lat": 29.3397,
  "lng": -81.1346,
  "address": "1657 N US Highway 1",
  "zip": "32174",
  "phone": "(386) 671-9585",
  "interstate": "I-95 · Exit 273"
 },
 "317|VA": {
  "lat": 36.6054,
  "lng": -77.5606,
  "address": "770 Moores Ferry Rd.",
  "zip": "23879",
  "phone": "(434) 336-0203",
  "interstate": "I-95 · Exit 4"
 },
 "318|IL": {
  "lat": 38.1555,
  "lng": -88.9108,
  "address": "202 North Ave.",
  "zip": "62846",
  "phone": "(618) 437-5275",
  "interstate": "I-57 · Exit 83"
 },
 "319|IN": {
  "lat": 39.8773,
  "lng": -86.474,
  "address": "780 Jeff Gordon Blvd.",
  "zip": "46167",
  "phone": "(317) 892-2938",
  "interstate": "I-74 · Exit 61"
 },
 "320|GA": {
  "lat": 32.4958,
  "lng": -82.9818,
  "address": "3009 Highway 257",
  "zip": "31021",
  "phone": "(478) 296-1368",
  "interstate": "I-16 · Exit 49"
 },
 "321|KY": {
  "lat": 36.9775,
  "lng": -84.1162,
  "address": "222 Highway 770",
  "zip": "40701",
  "phone": "(606) 526-8099",
  "interstate": "I-75 · Exit 29"
 },
 "322|IL": {
  "lat": 42.456,
  "lng": -88.9981,
  "address": "13477 Quality Dr.",
  "zip": "61073",
  "phone": "(815) 389-1923",
  "interstate": "I-39/90 · Exit 3"
 },
 "323|IN": {
  "lat": 40.5543,
  "lng": -85.549,
  "address": "253 Tippy Ditch Rd",
  "zip": "46952",
  "phone": "(765) 662-6462",
  "interstate": "I-69 · Exit 264"
 },
 "324|PA": {
  "lat": 41.0268,
  "lng": -76.3188,
  "address": "440 W. 3rd",
  "zip": "18631",
  "phone": "(570) 752-9013",
  "interstate": "I-80 · Exit 242"
 },
 "325|GA": {
  "lat": 31.4157,
  "lng": -83.5031,
  "address": "178 Southwell Blvd.",
  "zip": "31794",
  "phone": "(229) 382-9118",
  "interstate": "I-75 · Exit 59"
 },
 "326|SC": {
  "lat": 33.458,
  "lng": -80.7352,
  "address": "3205 Five Chop Rd.",
  "zip": "29115",
  "phone": "(803) 534-1663",
  "interstate": "I-26 · Exit 154A"
 },
 "327|TX": {
  "lat": 27.5299,
  "lng": -97.8421,
  "address": "1451 N US Highway 77 Byp",
  "zip": "78363",
  "phone": "(361) 592-7210",
  "interstate": "Hwy 77 · FM 1898"
 },
 "328|AZ": {
  "lat": 33.2799,
  "lng": -111.9623,
  "address": "7001 W. Sundust Rd.",
  "zip": "85226",
  "phone": "(520) 796-1185",
  "interstate": "I-10 · Exit 162"
 },
 "329|NM": {
  "lat": 34.3948,
  "lng": -103.1443,
  "address": "4700 Mabry Dr.",
  "zip": "88101",
  "phone": "(575) 762-2966",
  "interstate": "Hwy 60 · CR G"
 },
 "330|TN": {
  "lat": 36.1397,
  "lng": -85.6302,
  "address": "110 Fast Lane",
  "zip": "38544",
  "phone": "(931) 858-6150",
  "interstate": "I-40 · Exit 280"
 },
 "331|TX": {
  "lat": 32.624,
  "lng": -96.6938,
  "address": "2500 S. I-45",
  "zip": "75141",
  "phone": "(972) 225-3560",
  "interstate": "I-45 · 272 @ Fulghum Rd"
 },
 "332|OH": {
  "lat": 40.9962,
  "lng": -81.9958,
  "address": "10145 Avon Lake Rd.",
  "zip": "44214",
  "phone": "(330) 624-1000",
  "interstate": "I-71 · Exit 204"
 },
 "333|SC": {
  "lat": 35.0006,
  "lng": -80.9779,
  "address": "135 Sutton Ridge Ln.",
  "zip": "29708",
  "phone": "(803) 802-7130",
  "interstate": "I-77 · Exit 83"
 },
 "334|ID": {
  "lat": 42.5645,
  "lng": -113.7408,
  "address": "260 Centennial Dr.",
  "zip": "83336",
  "phone": "(208) 434-8777",
  "interstate": "I-84 · 211/US Hwy-30"
 },
 "335|UT": {
  "lat": 37.7258,
  "lng": -113.0514,
  "address": "2645 N Canyon Ranch Dr",
  "zip": "84720",
  "phone": "(435) 867-9888",
  "interstate": "I-15 · Exit 62"
 },
 "336|MI": {
  "lat": 42.2802,
  "lng": -84.9307,
  "address": "18720 Partello Rd.",
  "zip": "49068",
  "phone": "(269) 781-9203",
  "interstate": "I-94 · Exit 112"
 },
 "337|MN": {
  "lat": 43.6598,
  "lng": -93.3159,
  "address": "2751 E. Main St.",
  "zip": "56007",
  "phone": "(507) 373-3200",
  "interstate": "I-35 · Exit 11"
 },
 "338|GA": {
  "lat": 31.9607,
  "lng": -81.3316,
  "address": "8436 Ford Ave.",
  "zip": "31324",
  "phone": "(912) 756-5394",
  "interstate": "I-95 · Exit 90"
 },
 "339|TX": {
  "lat": 31.8173,
  "lng": -102.3808,
  "address": "1901 W. I-20",
  "zip": "79766",
  "phone": "(432) 335-7062",
  "interstate": "I-20 · Exit 115"
 },
 "340|NV": {
  "lat": 36.3816,
  "lng": -114.8965,
  "address": "12501 Apex Great Basin Pkwy",
  "zip": "89165",
  "phone": "(702) 643-7398",
  "interstate": "I-15 · Exit 64"
 },
 "341|MO": {
  "lat": 37.9816,
  "lng": -91.7193,
  "address": "3500 Hy Point Ind. Park Dr.",
  "zip": "65401",
  "phone": "(573) 426-5683",
  "interstate": "I-44 · Exit 189"
 },
 "342|TX": {
  "lat": 28.5212,
  "lng": -98.1852,
  "address": "2645 S I-37",
  "zip": "78071",
  "phone": "(361) 786-2523",
  "interstate": "I-37 · Exit 72"
 },
 "343|MS": {
  "lat": 32.4111,
  "lng": -88.5055,
  "address": "113 Will Garrett Rd",
  "zip": "39364",
  "phone": "(601) 632-4006",
  "interstate": "I-20 · Exit 165"
 },
 "344|TN": {
  "lat": 35.0751,
  "lng": -89.951,
  "address": "3371 Lamar Ave.",
  "zip": "38118",
  "phone": "(901) 433-7205",
  "interstate": "I-240 · 21 @ Hwy 78"
 },
 "345|WI": {
  "lat": 43.9612,
  "lng": -90.3782,
  "address": "220 Oakwood St.",
  "zip": "54660",
  "phone": "(608) 372-3820",
  "interstate": "I-90/94 · Exit 48"
 },
 "346|TN": {
  "lat": 35.644,
  "lng": -86.8915,
  "address": "1624 Bear Creek Pike",
  "zip": "38401",
  "phone": "(931) 388-1217",
  "interstate": "I-65 · Exit 46"
 },
 "347|MO": {
  "lat": 38.9339,
  "lng": -92.7795,
  "address": "2501 W. Ashley Rd.",
  "zip": "65233",
  "phone": "(660) 882-7770",
  "interstate": "I-70 · Exit 101"
 },
 "348|KY": {
  "lat": 37.0037,
  "lng": -88.3186,
  "address": "2966 US Highway 62",
  "zip": "42029",
  "phone": "(270) 395-0546",
  "interstate": "I-24 · Exit 27"
 },
 "349|AZ": {
  "lat": 32.6863,
  "lng": -114.5826,
  "address": "2931 E Gila Ridge Rd",
  "zip": "85365",
  "phone": "(928) 341-9100",
  "interstate": "I-8 · Exit 3"
 },
 "350|AZ": {
  "lat": 31.4286,
  "lng": -110.9624,
  "address": "739 E Frontage Rd",
  "zip": "85621",
  "phone": "(520) 860-6132",
  "interstate": "I-19 · 12/ E Ruby Rd"
 },
 "351|IL": {
  "lat": 41.3701,
  "lng": -89.0091,
  "address": "3020 E. 8th Rd.",
  "zip": "61373",
  "phone": "(815) 667-4572",
  "interstate": "I-80 · Exit 81"
 },
 "352|OH": {
  "lat": 39.6208,
  "lng": -83.6128,
  "address": "13023 US 35",
  "zip": "43128",
  "phone": "(740) 948-2342",
  "interstate": "I-71 · Exit 65"
 },
 "353|ND": {
  "lat": 46.8314,
  "lng": -96.8441,
  "address": "3220 39th St S",
  "zip": "58104",
  "phone": "(701) 281-0761",
  "interstate": "I-29 · Exit 62"
 },
 "354|GA": {
  "lat": 33.5142,
  "lng": -82.5036,
  "address": "2129 Washington Rd. NW",
  "zip": "30824",
  "phone": "(706) 843-9833",
  "interstate": "I-20 · Exit 172"
 },
 "355|IN": {
  "lat": 38.4909,
  "lng": -85.7699,
  "address": "13615 Blue Lick Rd.",
  "zip": "47143",
  "phone": "(812) 294-1379",
  "interstate": "I-65 · Exit 16"
 },
 "356|OH": {
  "lat": 41.1737,
  "lng": -83.6517,
  "address": "13190 Deshler Rd.",
  "zip": "45872",
  "phone": "(419) 257-2600",
  "interstate": "I-75 · Exit 167"
 },
 "357|CO": {
  "lat": 38.7234,
  "lng": -104.7294,
  "address": "5505 Travel Plaza Drive",
  "zip": "80817",
  "phone": "(719) 390-5800"
 },
 "358|PA": {
  "lat": 40.5174,
  "lng": -76.1111,
  "address": "3700 Mountain Road",
  "zip": "19526",
  "phone": "(610) 488-8840",
  "interstate": "I-78 · Exit 23"
 },
 "359|GA": {
  "lat": 34.1189,
  "lng": -84.7432,
  "address": "150 Old Allatoona Rd SE",
  "zip": "30121",
  "phone": "(770) 382-4141",
  "interstate": "I-75 · Exit 283"
 },
 "360|KY": {
  "lat": 37.2014,
  "lng": -85.9352,
  "address": "4000 L&N Turnpike",
  "zip": "42749",
  "phone": "(270) 786-4000",
  "interstate": "I-65 · Exit 58"
 },
 "361|IA": {
  "lat": 41.6804,
  "lng": -92.9991,
  "address": "4400 S. 22nd Ave. E.",
  "zip": "50208",
  "phone": "(641) 791-2410",
  "interstate": "I-80 · Exit 168"
 },
 "362|LA": {
  "lat": 30.1729,
  "lng": -93.5881,
  "address": "2024A West St.",
  "zip": "70668",
  "phone": "(337) 589-9858",
  "interstate": "I-10 · Exit 7"
 },
 "363|FL": {
  "lat": 29.2676,
  "lng": -82.1984,
  "address": "7791 NW 47th Avenue",
  "zip": "34482",
  "phone": "(352) 368-5719",
  "interstate": "I-75 · Exit 358"
 },
 "364|TN": {
  "lat": 35.2902,
  "lng": -84.8176,
  "address": "200 Lower River Road NW",
  "zip": "37310",
  "phone": "(423) 780-9171",
  "interstate": "I-75 · Exit 33"
 },
 "365|NV": {
  "lat": 41.099,
  "lng": -114.9599,
  "address": "157 Hwy 93 S.",
  "zip": "89835",
  "phone": "(775) 752-9915",
  "interstate": "I-80 · Exit 352"
 },
 "366|PA": {
  "lat": 40.4501,
  "lng": -76.5153,
  "address": "22 Old Forge Rd.",
  "zip": "17038",
  "phone": "(717) 861-7390",
  "interstate": "I-81 · Exit 90"
 },
 "367|IL": {
  "lat": 40.3404,
  "lng": -88.7608,
  "address": "505 S Persimmon Dr",
  "zip": "61752",
  "phone": "(309) 962-3060",
  "interstate": "I-74 · Exit 149"
 },
 "368|AL": {
  "lat": 32.8442,
  "lng": -86.592,
  "address": "300 Arby Dr",
  "zip": "35046",
  "phone": "(205) 755-8104",
  "interstate": "I-65 · Exit 208"
 },
 "370|OH": {
  "lat": 41.1731,
  "lng": -80.5691,
  "address": "2586 N. Main St.",
  "zip": "44425",
  "phone": "(330) 534-1800",
  "interstate": "I-80 · 234 WB/ 234A EB"
 },
 "371|SC": {
  "lat": 34.4196,
  "lng": -79.4159,
  "address": "1911 Highway 34 W",
  "zip": "29536",
  "phone": "(843) 774-2255",
  "interstate": "I-95 · Exit 190"
 },
 "372|OR": {
  "lat": 44.0458,
  "lng": -116.9771,
  "address": "1041 NW Washington Ave.",
  "zip": "97914",
  "phone": "(541) 823-8282",
  "interstate": "I-84 · Exit 374"
 },
 "373|OK": {
  "lat": 33.8813,
  "lng": -96.5003,
  "address": "2150 Leavenworth Trail",
  "zip": "74730",
  "phone": "(580) 296-5940",
  "interstate": "Hwy 69 · Platter Rd"
 },
 "374|CA": {
  "lat": 34.8571,
  "lng": -117.092,
  "address": "2974 Lenwood Rd.",
  "zip": "92311",
  "phone": "(760) 253-4080",
  "interstate": "I-15 · Exit 178"
 },
 "375|TX": {
  "lat": 30.8954,
  "lng": -96.6027,
  "address": "1423 N Market St",
  "zip": "77859",
  "phone": "(979) 279-9700",
  "interstate": "Hwy 6 · FM 485"
 },
 "376|GA": {
  "lat": 33.1594,
  "lng": -84.8714,
  "address": "1621 Bass Cross Rd.",
  "zip": "30230",
  "phone": "(706) 637-4311",
  "interstate": "I-85 · Exit 28"
 },
 "377|CO": {
  "lat": 40.077,
  "lng": -104.6491,
  "address": "201 East Bison Hwy",
  "zip": "80642",
  "phone": "(303) 536-9900",
  "interstate": "I-76 · Exit 31"
 },
 "378|WV": {
  "lat": 38.7572,
  "lng": -81.6904,
  "address": "3875 Charleston Rd.",
  "zip": "25271",
  "phone": "(304) 372-5250",
  "interstate": "I-77 · Exit 132"
 },
 "379|FL": {
  "lat": 30.3771,
  "lng": -83.2974,
  "address": "3204 SE County Road 255",
  "zip": "32059",
  "phone": "(850) 971-4115",
  "interstate": "I-10 · Exit 262"
 },
 "380|TX": {
  "lat": 33.057,
  "lng": -97.4841,
  "address": "4800 TX Hwy-114",
  "zip": "76078",
  "phone": "(817) 636-0270",
  "interstate": "Hwy 287 · Hwy 114"
 },
 "381|AL": {
  "lat": 34.3673,
  "lng": -86.8935,
  "address": "64 E. Pike Rd.",
  "zip": "35622",
  "phone": "(256) 784-6106",
  "interstate": "I-65 · Exit 322"
 },
 "382|CA": {
  "lat": 36.1809,
  "lng": -119.3301,
  "address": "2700 S. Blackstone St.",
  "zip": "93274",
  "phone": "(559) 686-1400",
  "interstate": "Hwy 99 · Exit 85"
 },
 "383|KY": {
  "lat": 38.6937,
  "lng": -84.9386,
  "address": "499 Loves Drive",
  "zip": "41083",
  "phone": "(859) 567-1140",
  "interstate": "I-71 · Exit 55"
 },
 "384|IL": {
  "lat": 38.8732,
  "lng": -89.3871,
  "address": "1900 S. State Rd. 127",
  "zip": "62246",
  "phone": "(618) 664-9287",
  "interstate": "I-70 · Exit 45"
 },
 "385|OK": {
  "lat": 35.5266,
  "lng": -98.3515,
  "address": "4400 N. Broadway",
  "zip": "73047",
  "phone": "(405) 542-3836",
  "interstate": "I-40 · Exit 101"
 },
 "386|AZ": {
  "lat": 34.725,
  "lng": -114.3158,
  "address": "14875 AZ Hwy-95",
  "zip": "86404",
  "phone": "(928) 764-1505",
  "interstate": "I-40 · Exit 9"
 },
 "387|SC": {
  "lat": 34.5048,
  "lng": -82.9619,
  "address": "4238 Old Dobbins Bridge Road",
  "zip": "29643",
  "phone": "(864) 287-5589",
  "interstate": "I-85 · Exit 4"
 },
 "388|MS": {
  "lat": 34.3513,
  "lng": -89.916,
  "address": "725 Highway 35 N",
  "zip": "38606",
  "phone": "(662) 563-1852",
  "interstate": "I-55 · Exit 246"
 },
 "389|OH": {
  "lat": 41.914,
  "lng": -80.5706,
  "address": "2 Loves Dr",
  "zip": "44030",
  "phone": "(440) 593-6816",
  "interstate": "I-90 · Exit 241"
 },
 "390|NE": {
  "lat": 41.1026,
  "lng": -100.7239,
  "address": "3211 S Newberry Rd",
  "zip": "69101",
  "phone": "(308) 534-4610",
  "interstate": "I-80 · Exit 179"
 },
 "391|IN": {
  "lat": 39.4498,
  "lng": -85.6264,
  "address": "7880 N Old US Highway 421",
  "zip": "47272",
  "phone": "(765) 525-6808",
  "interstate": "I-74 · Exit 123"
 },
 "392|CA": {
  "lat": 35.1261,
  "lng": -118.4081,
  "address": "2000 East Tehachapi Blvd.",
  "zip": "93561",
  "phone": "(661) 823-1484",
  "interstate": "Hwy 58 · Exit 151"
 },
 "393|MS": {
  "lat": 31.1909,
  "lng": -90.4856,
  "address": "1119 Airport Fernwood Rd.",
  "zip": "39648",
  "phone": "(601) 684-3353",
  "interstate": "I-55 · Exit 13"
 },
 "394|IN": {
  "lat": 41.1435,
  "lng": -87.261,
  "address": "11207 W State Road 10",
  "zip": "46310",
  "phone": "(219) 987-2202",
  "interstate": "I-65 · Exit 230"
 },
 "395|IL": {
  "lat": 41.0709,
  "lng": -87.8687,
  "address": "3407 South State Road 45/52",
  "zip": "60901",
  "phone": "(815) 929-1549",
  "interstate": "I-57 · Exit 308"
 },
 "396|SC": {
  "lat": 34.2964,
  "lng": -81.5438,
  "address": "36 Dusty Rd.",
  "zip": "29108",
  "phone": "(803) 321-1125",
  "interstate": "I-26 · Exit 76"
 },
 "397|SC": {
  "lat": 35.1567,
  "lng": -81.4784,
  "address": "116 Priester Road",
  "zip": "29702",
  "phone": "(864) 839-1543",
  "interstate": "I-85 · Exit 104"
 },
 "398|MS": {
  "lat": 34.3163,
  "lng": -88.7914,
  "address": "4601 McCullough Blvd.",
  "zip": "38804",
  "phone": "(662) 840-5343",
  "interstate": "I-22 · Exit 81"
 },
 "399|VA": {
  "lat": 36.5787,
  "lng": -80.7405,
  "address": "227 Old Pipers Gap Rd.",
  "zip": "24351",
  "phone": "(276) 755-3117",
  "interstate": "I-77 · Exit 1"
 },
 "401|TX": {
  "lat": 29.798,
  "lng": -95.0326,
  "address": "1703 I-10",
  "zip": "77521",
  "phone": "(281) 426-6569",
  "interstate": "I-10 · 789/Thompson Rd"
 },
 "402|MS": {
  "lat": 30.4521,
  "lng": -88.9333,
  "address": "11332 Cedar Lake Rd.",
  "zip": "39532",
  "phone": "(228) 396-5646",
  "interstate": "I-10 · Exit 44"
 },
 "403|NY": {
  "lat": 42.1016,
  "lng": -75.8358,
  "address": "2 Industrial Park Dr.",
  "zip": "13904",
  "phone": "(607) 651-9153",
  "interstate": "I-81 · 9 SB / 8B NB"
 },
 "404|NJ": {
  "lat": 40.12,
  "lng": -74.7076,
  "address": "2008 Hwy 206 S.",
  "zip": "08505",
  "phone": "(609) 324-1005",
  "interstate": "I-295 · 56 NB / 52A SB"
 },
 "405|GA": {
  "lat": 31.1378,
  "lng": -81.5718,
  "address": "2766 US Highway 17 S",
  "zip": "31523",
  "phone": "(912) 264-2777",
  "interstate": "I-95 · Exit 29"
 },
 "407|PA": {
  "lat": 40.2303,
  "lng": -77.1441,
  "address": "1165 Harrisburg Pike",
  "zip": "17013",
  "phone": "(717) 240-0055",
  "interstate": "I-81 · 52B NB/52 SB"
 },
 "410|CA": {
  "lat": 39.9076,
  "lng": -122.1964,
  "address": "2120 South Ave.",
  "zip": "96021",
  "phone": "(530) 824-8767",
  "interstate": "I-5 · Exit 630"
 },
 "411|IA": {
  "lat": 41.6134,
  "lng": -93.7807,
  "address": "11820 Hickman Road",
  "zip": "50325",
  "phone": "(515) 276-5200",
  "interstate": "I-35/80 · 125/US Hwy-6"
 },
 "412|NC": {
  "lat": 35.3399,
  "lng": -78.5569,
  "address": "3948 Hodges Chapel Rd",
  "zip": "28334",
  "phone": "(910) 892-7230",
  "interstate": "I-95 · Exit 77"
 },
 "413|WA": {
  "lat": 47.0076,
  "lng": -120.5859,
  "address": "1512 Hwy 97",
  "zip": "98926",
  "phone": "(509) 925-5200",
  "interstate": "I-90 · Exit 106"
 },
 "414|IN": {
  "lat": 38.1734,
  "lng": -87.5516,
  "address": "901 East 1250 South",
  "zip": "47639",
  "phone": "(812) 768-5838",
  "interstate": "I-64 · Exit 25B"
 },
 "415|FL": {
  "lat": 27.4132,
  "lng": -80.3977,
  "address": "7150 Okeechobee Rd.",
  "zip": "34945",
  "phone": "(772) 460-5777",
  "interstate": "I-95 · Exit 129"
 },
 "417|IN": {
  "lat": 41.5618,
  "lng": -87.3566,
  "address": "3150 Grant St",
  "zip": "46408",
  "phone": "(219) 981-4646",
  "interstate": "I-94 · Exit 9"
 },
 "418|KY": {
  "lat": 38.3411,
  "lng": -82.9419,
  "address": "750 N. Carol Malone Blvd.",
  "zip": "41143",
  "phone": "(606) 474-6009",
  "interstate": "I-64 · Exit 172"
 },
 "419|TX": {
  "lat": 29.7974,
  "lng": -95.3698,
  "address": "210 Patton St.",
  "zip": "77009",
  "phone": "(713) 694-9898",
  "interstate": "I-45 · 50 SB/50A NB"
 },
 "420|MS": {
  "lat": 32.2792,
  "lng": -90.1554,
  "address": "730 Highway 80 E",
  "zip": "39232",
  "phone": "(601) 420-8324",
  "interstate": "I-20 · Exit 47"
 },
 "429|TN": {
  "lat": 36.2056,
  "lng": -86.7716,
  "address": "130 W. Trinity Lane",
  "zip": "37207",
  "phone": "(615) 226-6393",
  "interstate": "I-65 · Exit 87"
 },
 "432|WI": {
  "lat": 42.8712,
  "lng": -87.9408,
  "address": "9650 S. 20th St.",
  "zip": "53154",
  "phone": "(414) 761-0482",
  "interstate": "I-94 · Exit 322"
 },
 "435|VA": {
  "lat": 37.9379,
  "lng": -77.4658,
  "address": "23845 Rogers Clark Blvd.",
  "zip": "22546",
  "phone": "(804) 448-0102",
  "interstate": "I-95 · Exit 104"
 },
 "436|UT": {
  "lat": 40.7699,
  "lng": -111.9399,
  "address": "25 N. Redwood Rd.",
  "zip": "84116",
  "phone": "(801) 239-1100",
  "interstate": "I-80 · Exit 118"
 },
 "441|CA": {
  "lat": 37.1114,
  "lng": -121.0166,
  "address": "29025 West Plaza Dr.",
  "zip": "95322",
  "phone": "(209) 827-1399",
  "interstate": "I-5 · Exit 407"
 },
 "445|SD": {
  "lat": 43.6041,
  "lng": -96.7121,
  "address": "5301 N. Cliff Ave.",
  "zip": "57104",
  "phone": "(605) 332-7611",
  "interstate": "I-90 · Exit 399"
 },
 "448|WA": {
  "lat": 47.2453,
  "lng": -122.3844,
  "address": "1501 33rd Ave E",
  "zip": "98424",
  "phone": "(253) 922-8884",
  "interstate": "I-5 · 136B EB/136 WB"
 },
 "449|OR": {
  "lat": 45.5436,
  "lng": -122.3917,
  "address": "400 NW Frontage Rd",
  "zip": "97060",
  "phone": "(503) 665-7741",
  "interstate": "I-84 · Exit 17"
 },
 "450|AR": {
  "lat": 35.1539,
  "lng": -90.1383,
  "address": "800 Martin Luther King Dr.",
  "zip": "72301",
  "phone": "(870) 732-1272",
  "interstate": "I-40 · Exit 280"
 },
 "451|IN": {
  "lat": 39.5515,
  "lng": -86.0446,
  "address": "5115 N. 300 E.",
  "zip": "46184",
  "phone": "(317) 535-8741",
  "interstate": "I-65 · Exit 95"
 },
 "452|OK": {
  "lat": 34.7086,
  "lng": -97.2425,
  "address": "1601 Airline Road",
  "zip": "73075",
  "phone": "(405) 207-9692",
  "interstate": "I-35 · Exit 70"
 },
 "453|FL": {
  "lat": 30.749,
  "lng": -85.383,
  "address": "2510 Highway 231",
  "zip": "32431",
  "phone": "(850) 352-2041",
  "interstate": "I-10 · 130/US Hwy-231"
 },
 "454|WA": {
  "lat": 46.6032,
  "lng": -122.9083,
  "address": "1276 Rush Rd",
  "zip": "98532",
  "phone": "(360) 748-6597",
  "interstate": "I-5 · Exit 72"
 },
 "455|KS": {
  "lat": 38.9477,
  "lng": -99.5601,
  "address": "200 Washington Street",
  "zip": "67637",
  "phone": "(785) 726-2528",
  "interstate": "I-70 · Exit 145"
 },
 "456|OH": {
  "lat": 41.5372,
  "lng": -83.4667,
  "address": "26530 Baker Rd",
  "zip": "43551",
  "phone": "(419) 837-0071",
  "interstate": "I-280 · Exit 1B"
 },
 "457|AR": {
  "lat": 34.6572,
  "lng": -92.4132,
  "address": "11700 I-30",
  "zip": "72210",
  "phone": "(501) 407-0227",
  "interstate": "I-30 · Exit 128"
 },
 "458|MO": {
  "lat": 37.277,
  "lng": -93.1126,
  "address": "400 N. State Highway 125",
  "zip": "65757",
  "phone": "(417) 736-9043",
  "interstate": "I-44 · Exit 88"
 },
 "459|IN": {
  "lat": 39.9795,
  "lng": -86.3957,
  "address": "4155 S Indianapolis Rd",
  "zip": "46075",
  "phone": "(317) 769-2330",
  "interstate": "I-65 · Exit 133"
 },
 "460|AZ": {
  "lat": 31.9624,
  "lng": -110.3448,
  "address": "643 S. Highway 90",
  "zip": "85602",
  "phone": "(520) 586-8702",
  "interstate": "I-10 · Exit 302"
 },
 "461|MO": {
  "lat": 38.685,
  "lng": -90.2182,
  "address": "6124 North Broadway",
  "zip": "63147",
  "phone": "(314) 383-0506",
  "interstate": "I-70 · Exit 246A"
 },
 "463|TX": {
  "lat": 29.562,
  "lng": -98.0343,
  "address": "3158 I-10 W",
  "zip": "78155",
  "phone": "(830) 372-6190",
  "interstate": "I-10 · Exit 604"
 },
 "464|TX": {
  "lat": 29.982,
  "lng": -98.9032,
  "address": "43 US Highway 87",
  "zip": "78013",
  "phone": "(830) 995-2770",
  "interstate": "I-10 · Exit 523"
 },
 "369|TN": {
  "lat": 35.992,
  "lng": -87.4882,
  "address": "2971 Highway 48 S",
  "zip": "37055",
  "phone": "(615) 441-2691",
  "interstate": "I-40 · Exit 163"
 },
 "466|AL": {
  "lat": 33.7908,
  "lng": -87.2417,
  "address": "83 Carl Cannon Blvd",
  "zip": "35501",
  "phone": "(205) 295-1706",
  "interstate": "I-22 · Exit 65"
 },
 "447|TX": {
  "lat": 31.9979,
  "lng": -106.5812,
  "address": "3000 Mountain Pass Blvd",
  "zip": "79821",
  "phone": "(915) 886-3915",
  "interstate": "I-10"
 },
 "468|TX": {
  "lat": 30.4372,
  "lng": -95.4975,
  "address": "9600 Longstreet Rd",
  "zip": "77318",
  "phone": "(936) 856-5085",
  "interstate": "I-45 · Exit 95"
 },
 "469|VA": {
  "lat": 36.7484,
  "lng": -78.0982,
  "address": "1850 North Mecklenburg Ave",
  "zip": "23970",
  "phone": "(434) 584-0077",
  "interstate": "I-85 · Exit 15"
 },
 "470|FL": {
  "lat": 30.4521,
  "lng": -82.9336,
  "address": "11459 SW 61st Way",
  "zip": "32052",
  "phone": "(386) 792-3095",
  "interstate": "I-75 · 451/US Hwy-129"
 },
 "473|TX": {
  "lat": 33.4634,
  "lng": -94.2042,
  "address": "451 Leary Road",
  "zip": "75501",
  "phone": "(903) 838-0856",
  "interstate": "I-30 · Exit 213"
 },
 "474|ND": {
  "lat": 48.2438,
  "lng": -103.6211,
  "address": "104 104th Street East",
  "zip": "58801",
  "phone": "(701) 572-3578",
  "interstate": "US Hwy-2 · US Hwy-85B/104th St E"
 },
 "476|IA": {
  "lat": 41.6044,
  "lng": -90.6239,
  "address": "8255 Northwest Blvd",
  "zip": "52806",
  "phone": "(563) 386-3466",
  "interstate": "I-80 · Exit 292"
 },
 "479|IA": {
  "lat": 42.4347,
  "lng": -96.3799,
  "address": "2525 Singing Hills Blvd",
  "zip": "51111",
  "phone": "(712) 224-3675",
  "interstate": "I-29 · Exit 143"
 },
 "478|ID": {
  "lat": 43.437,
  "lng": -112.1198,
  "address": "6737 South 45th West",
  "zip": "83402",
  "phone": "(208) 529-1904",
  "interstate": "I-15 · Exit 113"
 },
 "471|TX": {
  "lat": 29.1848,
  "lng": -98.8465,
  "address": "21548 FM 471 S",
  "zip": "78059",
  "phone": "(830) 663-5540",
  "interstate": "I-35 · Exit 127"
 },
 "475|TX": {
  "lat": 32.4504,
  "lng": -100.4418,
  "address": "9418 North Interstate 20",
  "zip": "79556",
  "phone": "(325) 235-1240",
  "interstate": "I-20 · Exit 242"
 },
 "480|TN": {
  "lat": 35.8724,
  "lng": -84.3232,
  "address": "9155 Highway 321 N",
  "zip": "37771",
  "phone": "(865) 988-3668",
  "interstate": "I-40 · Exit 364"
 },
 "481|TX": {
  "lat": 29.707,
  "lng": -95.0927,
  "address": "7005 Highway 225",
  "zip": "77536",
  "phone": "(281) 479-3430",
  "interstate": "Hwy 225 · Independence Pkwy"
 },
 "486|OK": {
  "lat": 35.3958,
  "lng": -97.2662,
  "address": "7401 S. Choctaw Rd.",
  "zip": "73020",
  "phone": "(405) 391-3855",
  "interstate": "I-40 · Exit 166"
 },
 "467|FL": {
  "lat": 27.4456,
  "lng": -80.3982,
  "address": "200 S Kings Hwy",
  "zip": "34945",
  "phone": "(772) 489-0363",
  "interstate": "I-95 · Exit 131"
 },
 "484|TX": {
  "lat": 29.6905,
  "lng": -96.777,
  "address": "900 S Eagle Street",
  "zip": "78962",
  "phone": "(979) 725-8625",
  "interstate": "I-10 · Exit 682"
 },
 "488|MO": {
  "lat": 38.0058,
  "lng": -90.2258,
  "address": "8349 Enterprise Dr.",
  "zip": "63627",
  "phone": "(573) 483-9235",
  "interstate": "I-55 · Exit 157"
 },
 "490|TN": {
  "lat": 35.0357,
  "lng": -85.5819,
  "address": "260 TVA Road",
  "zip": "37347",
  "phone": "(423) 942-3345",
  "interstate": "I-24 · Exit 158"
 },
 "495|FL": {
  "lat": 26.714,
  "lng": -81.8151,
  "address": "17308 Park 78 Drive",
  "zip": "33917",
  "phone": "(239) 731-9217",
  "interstate": "I-75 · Exit 143"
 },
 "492|TX": {
  "lat": 31.3998,
  "lng": -103.4794,
  "address": "5202 South Cedar St.",
  "zip": "79772",
  "phone": "(432) 445-1490",
  "interstate": "I-20 · Exit 42"
 },
 "424|SC": {
  "lat": 33.9245,
  "lng": -81.2903,
  "address": "340 Longs Pond Rd.",
  "zip": "29073",
  "phone": "(803) 957-7856",
  "interstate": "I-20 · Exit 51"
 },
 "500|MO": {
  "lat": 40.4662,
  "lng": -93.9787,
  "address": "21022 State Highway N",
  "zip": "64442",
  "phone": "(660) 867-5300",
  "interstate": "I-35 · Exit 106"
 },
 "517|CO": {
  "lat": 39.1142,
  "lng": -108.6462,
  "address": "748 22 Road",
  "zip": "81505",
  "phone": "(970) 241-3337",
  "interstate": "I-70 · Exit 26"
 },
 "523|LA": {
  "lat": 30.2518,
  "lng": -92.1948,
  "address": "126 Lexington Dr",
  "zip": "70578",
  "phone": "(337) 873-7880",
  "interstate": "I-10 · Exit 92"
 },
 "507|NC": {
  "lat": 35.609,
  "lng": -80.5175,
  "address": "1105 Peeler Rd. Suite 100",
  "zip": "28146",
  "phone": "(704) 630-6767",
  "interstate": "I-85 · Exit 71"
 },
 "427|OH": {
  "lat": 39.733,
  "lng": -84.209,
  "address": "2217 S Edwin C Moses Blvd",
  "zip": "45417",
  "phone": "(937) 222-5202",
  "interstate": "I-75 · Exit 51"
 },
 "426|IA": {
  "lat": 41.497,
  "lng": -95.4519,
  "address": "10 East Street",
  "zip": "51570",
  "phone": "(712) 207-2441",
  "interstate": "I-80 · Exit 34"
 },
 "518|UT": {
  "lat": 40.1623,
  "lng": -111.6517,
  "address": "358 South 2200 West",
  "zip": "84663",
  "phone": "(801) 489-8746",
  "interstate": "I-15 · Exit 260"
 },
 "514|WA": {
  "lat": 47.1132,
  "lng": -118.3669,
  "address": "1370 N Highway 261",
  "zip": "99169",
  "phone": "(509) 659-1005",
  "interstate": "I-90 · Exit 221"
 },
 "530|AL": {
  "lat": 33.577,
  "lng": -86.4772,
  "address": "2625 Kelly Creek Rd S",
  "zip": "35004",
  "phone": "(205) 699-2977",
  "interstate": "I-20 · Exit 147"
 },
 "529|IL": {
  "lat": 41.2936,
  "lng": -89.0866,
  "address": "1001 W. Walnut St.",
  "zip": "61348",
  "phone": "(815) 883-3561",
  "interstate": "I-39 · Exit 54"
 },
 "535|PA": {
  "lat": 40.2263,
  "lng": -76.7202,
  "address": "3555 Vine St",
  "zip": "17057",
  "phone": "(717) 948-1840",
  "interstate": "Hwy 283 · Vine St"
 },
 "539|TX": {
  "lat": 32.3061,
  "lng": -102.5418,
  "address": "1201 S. Main St.",
  "zip": "79714",
  "phone": "(432) 524-2064",
  "interstate": "Hwy 385 · Loop 1910"
 },
 "551|IN": {
  "lat": 41.6336,
  "lng": -85.0507,
  "address": "3443 W. Maumee Street",
  "zip": "46703",
  "phone": "(260) 665-2810",
  "interstate": "I-69 · Exit 348"
 },
 "557|AR": {
  "lat": 35.2191,
  "lng": -91.7161,
  "address": "2505 Queensway St.",
  "zip": "72143",
  "phone": "(501) 278-5090",
  "interstate": "HWY 67 · Exit 44"
 },
 "558|KS": {
  "lat": 37.745,
  "lng": -99.9802,
  "address": "2505 E Trail Street",
  "zip": "67801",
  "phone": "(620) 227-5380",
  "interstate": "Hwy 400 · E Trail St"
 },
 "560|VA": {
  "lat": 36.6625,
  "lng": -76.9396,
  "address": "2307 South Street",
  "zip": "23851",
  "phone": "(757) 516-2602",
  "interstate": "Hwy 58 · Hwy 258"
 },
 "542|TX": {
  "lat": 30.8934,
  "lng": -102.8521,
  "address": "2723 East US Highway 290",
  "zip": "79735",
  "phone": "(432) 336-3622",
  "interstate": "I-10 · Exit 261"
 },
 "559|MS": {
  "lat": 33.4577,
  "lng": -90.6306,
  "address": "1212 Highway 82 E",
  "zip": "38751",
  "phone": "(662) 887-7885",
  "interstate": "Hwy 82 · Hwy 49W"
 },
 "564|MS": {
  "lat": 33.5183,
  "lng": -88.3772,
  "address": "525 Tuscaloosa Road",
  "zip": "39702",
  "phone": "(662) 244-4793",
  "interstate": "Hwy 82 · Hwy 50"
 },
 "553|AZ": {
  "lat": 35.2628,
  "lng": -112.1936,
  "address": "1055 N Grand Canyon Blvd",
  "zip": "86046",
  "phone": "(928) 635-9958",
  "interstate": "I-40 · Exit 163"
 },
 "538|CA": {
  "lat": 38.1174,
  "lng": -121.3926,
  "address": "15250 North Thornton Rd",
  "zip": "95242",
  "phone": "(209) 333-9392",
  "interstate": "I-5 · Exit 485"
 },
 "561|FL": {
  "lat": 30.7339,
  "lng": -86.3491,
  "address": "17750 Hwy 285 Drive S",
  "zip": "32435",
  "phone": "(850) 951-1067",
  "interstate": "I-10 · Exit 70"
 },
 "578|IL": {
  "lat": 38.89,
  "lng": -89.8343,
  "address": "9191 State Route 140",
  "zip": "62046",
  "phone": "(618) 633-2883",
  "interstate": "I-55 · Exit 30"
 },
 "580|AL": {
  "lat": 34.6971,
  "lng": -87.6358,
  "address": "2048 Highway 20",
  "zip": "35674",
  "phone": "(256) 383-8889",
  "interstate": "Hwy 72A · Three Mile Lane"
 },
 "566|AL": {
  "lat": 31.4273,
  "lng": -85.6198,
  "address": "3771 S US Highway 231",
  "zip": "36360",
  "phone": "(334) 445-0323",
  "interstate": "US Hwy-231 · AL Hwy-123"
 },
 "577|AL": {
  "lat": 32.4044,
  "lng": -85.9565,
  "address": "431 Main St.",
  "zip": "36075",
  "phone": "(334) 725-1355",
  "interstate": "I-85 · Exit 22"
 },
 "585|MO": {
  "lat": 36.8799,
  "lng": -94.4276,
  "address": "12009 E Highway 86",
  "zip": "64850",
  "phone": "(417) 451-2669",
  "interstate": "I-49 · Exit 27"
 },
 "581|UT": {
  "lat": 38.932,
  "lng": -111.8536,
  "address": "1915 South State Street",
  "zip": "84654",
  "phone": "(435) 287-0460",
  "interstate": "I-70 · Exit 56"
 },
 "583|IL": {
  "lat": 38.5345,
  "lng": -89.7323,
  "address": "8690 Richter School Rd",
  "zip": "62265",
  "phone": "(618) 588-2257",
  "interstate": "I-64 · Exit 27"
 },
 "587|WI": {
  "lat": 43.7481,
  "lng": -88.4636,
  "address": "191 West Rolling Meadows Drive",
  "zip": "54937",
  "phone": "(920) 907-0145",
  "interstate": "I-41 · Exit 97"
 },
 "592|IN": {
  "lat": 41.1411,
  "lng": -84.8505,
  "address": "5959 N State Road 101",
  "zip": "46797",
  "phone": "(260) 632-0318",
  "interstate": "Hwy 24 · SR 101"
 },
 "602|SD": {
  "lat": 44.1204,
  "lng": -103.0522,
  "address": "679 Reagan Ave",
  "zip": "57719",
  "phone": "(605) 923-4292",
  "interstate": "I-90 · Exit 67B"
 },
 "594|OH": {
  "lat": 38.8754,
  "lng": -82.2961,
  "address": "2008 State Route 850",
  "zip": "45614",
  "phone": "(740) 245-0089",
  "interstate": "Hwy 35 · SR 850"
 },
 "601|IN": {
  "lat": 39.8436,
  "lng": -85.5575,
  "address": "6190 South State Route 109",
  "zip": "46148",
  "phone": "(765) 785-2060",
  "interstate": "I-70 · Exit 115"
 },
 "607|AR": {
  "lat": 35.8034,
  "lng": -90.6352,
  "address": "5101 East Parker Rd",
  "zip": "72404",
  "phone": "(870) 933-7010",
  "interstate": "Hwy 63 · Exit 40"
 },
 "600|IN": {
  "lat": 39.9922,
  "lng": -85.8451,
  "address": "9000 Interpark Dr",
  "zip": "46064",
  "phone": "(317) 485-2198",
  "interstate": "I-69 · Exit 214"
 },
 "608|KS": {
  "lat": 38.3701,
  "lng": -97.6149,
  "address": "2400 E Kansas Ave",
  "zip": "67460",
  "phone": "(620) 241-4078",
  "interstate": "I-135 · Exit 60"
 },
 "537|MD": {
  "lat": 39.6726,
  "lng": -78.7167,
  "address": "13300 Ali Ghan Road NE",
  "zip": "21502",
  "phone": "(301) 759-0170",
  "interstate": "I-68 · E46/W47"
 },
 "603|FL": {
  "lat": 30.5169,
  "lng": -81.6326,
  "address": "400 Pecan Park Road",
  "zip": "32218",
  "phone": "(904) 696-1463",
  "interstate": "I-95 · Exit 366"
 },
 "619|MS": {
  "lat": 30.8464,
  "lng": -89.4979,
  "address": "720 Highway 26 E",
  "zip": "39470",
  "phone": "(601) 403-9850",
  "interstate": "I-59 · Exit 29"
 },
 "610|TX": {
  "lat": 32.4025,
  "lng": -99.3847,
  "address": "1333 US Highway 283 N",
  "zip": "79504",
  "phone": "(325) 854-0099",
  "interstate": "I-20 · Exit 307"
 },
 "589|TX": {
  "lat": 33.6416,
  "lng": -101.839,
  "address": "4221 North Interstate 27",
  "zip": "79403",
  "phone": "(806) 744-1531",
  "interstate": "I-27 · Exit 8"
 },
 "618|KY": {
  "lat": 38.3795,
  "lng": -84.5726,
  "address": "313 Porter Road",
  "zip": "40370",
  "phone": "(502) 857-4878",
  "interstate": "I-75 · Exit 136"
 },
 "621|MO": {
  "lat": 39.762,
  "lng": -92.5637,
  "address": "1402 State Highway O",
  "zip": "63532",
  "phone": "(660) 773-5500",
  "interstate": "Hwy 36 · Route 0"
 },
 "615|TX": {
  "lat": 32.1611,
  "lng": -94.319,
  "address": "975 E Sabine St",
  "zip": "75633",
  "phone": "(903) 690-8152",
  "interstate": "US Hwy-59 · US Hwy-79/E Sabine St"
 },
 "617|TX": {
  "lat": 29.3924,
  "lng": -96.0769,
  "address": "350 E Walnut Street",
  "zip": "77448",
  "phone": "(979) 532-1503",
  "interstate": "Hwy 59 · Walnut St"
 },
 "628|TX": {
  "lat": 32.1937,
  "lng": -96.8987,
  "address": "1021 Dale Evans Dr",
  "zip": "76651",
  "phone": "(972) 483-1686",
  "interstate": "I-35E · Exit 386"
 },
 "624|AL": {
  "lat": 30.742,
  "lng": -88.1108,
  "address": "2600 W I-65 Service Rd N",
  "zip": "36612",
  "phone": "(251) 330-2991",
  "interstate": "I-65 · Exit 8"
 },
 "606|IL": {
  "lat": 41.5998,
  "lng": -87.5798,
  "address": "1533 E 162nd Street",
  "zip": "60473",
  "phone": "(708) 331-7365",
  "interstate": "I-94 · 73B @ 162nd St"
 },
 "604|OK": {
  "lat": 35.8798,
  "lng": -97.3919,
  "address": "2700 E OK Hwy-33",
  "zip": "73044",
  "phone": "(405) 260-1493",
  "interstate": "I-35 · Exit 157"
 },
 "612|MO": {
  "lat": 38.7934,
  "lng": -90.4483,
  "address": "13945 Missouri Bottom Road",
  "zip": "63044",
  "phone": "(314) 291-9416",
  "interstate": "Hwy 370 · Exit 9"
 },
 "622|WI": {
  "lat": 44.907,
  "lng": -91.8559,
  "address": "5930 Badger Dr.",
  "zip": "54751",
  "phone": "(715) 231-2163",
  "interstate": "I-94 · Exit 45"
 },
 "631|NE": {
  "lat": 41.3125,
  "lng": -96.3244,
  "address": "26120 E Meigs St",
  "zip": "68064",
  "phone": "(402) 359-2399",
  "interstate": "Hwy 275 · E Meigs St"
 },
 "644|CO": {
  "lat": 39.2914,
  "lng": -102.2775,
  "address": "582 S Lincoln St",
  "zip": "80807",
  "phone": "(719) 346-5204",
  "interstate": "I-70 · Exit 437"
 },
 "605|OH": {
  "lat": 39.8935,
  "lng": -83.7225,
  "address": "1725 Ridge Rd",
  "zip": "45502",
  "phone": "(937) 325-2961",
  "interstate": "I-70 · 59 @ Hwy 41"
 },
 "643|MO": {
  "lat": 36.854,
  "lng": -89.5839,
  "address": "1401 South Main St",
  "zip": "63801",
  "phone": "(573) 472-6428",
  "interstate": "Hwy 60 · Hwy 61/62"
 },
 "627|FL": {
  "lat": 28.2438,
  "lng": -81.6577,
  "address": "45000 Highway 27",
  "zip": "33897",
  "phone": "(863) 420-3623",
  "interstate": "I-4 · 55 @ Hwy 27 NB"
 },
 "623|TX": {
  "lat": 31.9477,
  "lng": -102.1415,
  "address": "5200 Cholla Rd",
  "zip": "79706",
  "phone": "(432) 699-2374",
  "interstate": "I-20 · Exit 131"
 },
 "614|NM": {
  "lat": 35.0635,
  "lng": -106.786,
  "address": "12605 Central Ave NW",
  "zip": "87121",
  "phone": "(505) 831-5533",
  "interstate": "I-40 · Exit 149"
 },
 "625|NE": {
  "lat": 41.1092,
  "lng": -102.9505,
  "address": "645 Chase Blvd",
  "zip": "69162",
  "phone": "(308) 254-4832",
  "interstate": "I-80 · 59 @ Upland Pkwy"
 },
 "638|OK": {
  "lat": 36.5063,
  "lng": -101.7747,
  "address": "1430 Hwy 54 E",
  "zip": "73949",
  "phone": "(580) 423-6126",
  "interstate": "Hwy 54"
 },
 "648|OK": {
  "lat": 34.0043,
  "lng": -95.1014,
  "address": "701 W Wilson St",
  "zip": "74764",
  "phone": "(580) 933-5683",
  "interstate": "Hwy 70 · Grays Ferry Rd"
 },
 "611|NY": {
  "lat": 42.3627,
  "lng": -73.4294,
  "address": "12845 Route 22",
  "zip": "12029",
  "phone": "(518) 781-4040",
  "interstate": "I-90 · B3"
 },
 "654|OK": {
  "lat": 35.4056,
  "lng": -97.9384,
  "address": "21000 SW 59th St",
  "zip": "73090",
  "phone": "(405) 483-5600",
  "interstate": "Hwy 81 · SW 59th Street"
 },
 "636|OK": {
  "lat": 36.7196,
  "lng": -95.6286,
  "address": "106 Airport Drive",
  "zip": "74048",
  "phone": "(918) 273-5640",
  "interstate": "Hwy 169 · Airport Rd"
 },
 "115|CO": {
  "lat": 38.851,
  "lng": -106.1393,
  "address": "115 Harrison Ave",
  "zip": "81211",
  "phone": "(719) 395-3355",
  "interstate": "Hwy 24 · Harrison Ave"
 },
 "613|VA": {
  "lat": 36.7565,
  "lng": -81.8568,
  "address": "13365 Glenbrook Ave",
  "zip": "24361",
  "phone": "(276) 944-3281",
  "interstate": "I-81 · Exit 24"
 },
 "633|IN": {
  "lat": 41.3623,
  "lng": -86.3492,
  "address": "2952 Gary Drive",
  "zip": "46563",
  "phone": "(574) 935-4103",
  "interstate": "Hwy 30 · Pioneer Dr"
 },
 "629|TN": {
  "lat": 36.4679,
  "lng": -86.6874,
  "address": "1001 Highway 76",
  "zip": "37188",
  "phone": "(615) 672-0261",
  "interstate": "I-65 · 108 @ Hwy 76"
 },
 "630|OK": {
  "lat": 36.3988,
  "lng": -97.82,
  "address": "4104 E Randolph Ave",
  "zip": "73701",
  "phone": "(580) 237-1901",
  "interstate": "Hwy 412 · N 42nd St"
 },
 "651|TX": {
  "lat": 32.5091,
  "lng": -95.6447,
  "address": "1188 S. Oak St.",
  "zip": "75790",
  "phone": "(903) 963-1122",
  "interstate": "I-20 · 540 @ FM 314"
 },
 "656|KS": {
  "lat": 38.0009,
  "lng": -100.9967,
  "address": "1500 N Jones Ave",
  "zip": "67851",
  "phone": "(620) 277-2240",
  "interstate": "US-400/480/50 · N Big Lowe Rd"
 },
 "93|KS": {
  "lat": 37.9607,
  "lng": -100.8335,
  "address": "3285 E US Highway 50",
  "zip": "67846",
  "phone": "(620) 272-0607",
  "interstate": "US Hwy-50/400 · Harvest St"
 },
 "655|KS": {
  "lat": 38.4647,
  "lng": -100.9064,
  "address": "1720 S Main Street",
  "zip": "67871",
  "phone": "(620) 872-5727",
  "interstate": "HWY 83"
 },
 "626|TX": {
  "lat": 35.8795,
  "lng": -101.974,
  "address": "720 N Dumas Ave",
  "zip": "79029",
  "phone": "(806) 935-0189",
  "interstate": "HWY 287 · N 8th Street"
 },
 "650|OR": {
  "lat": 45.8252,
  "lng": -119.7987,
  "address": "78665 Tower Road",
  "zip": "97818",
  "phone": "(541) 481-2934",
  "interstate": "I-84 · Exit 159"
 },
 "616|MO": {
  "lat": 38.6363,
  "lng": -94.356,
  "address": "2611 S Brookhart Dr",
  "zip": "64701",
  "phone": "(816) 887-2050",
  "interstate": "I-49 · Exit 158"
 },
 "647|KS": {
  "lat": 39.8346,
  "lng": -97.6367,
  "address": "1356 US Highway 81",
  "zip": "66935",
  "phone": "(785) 527-2472",
  "interstate": "Hwy 81 · 7th St"
 },
 "673|TX": {
  "lat": 33.2618,
  "lng": -94.1522,
  "address": "22406 US Highway 59 N",
  "zip": "75572",
  "phone": "(903) 796-1385",
  "interstate": "Hwy 59 · FM 3129"
 },
 "639|MS": {
  "lat": 32.3224,
  "lng": -89.3425,
  "address": "6138 Lake Norris Road",
  "zip": "39092",
  "phone": "(601) 775-0011",
  "interstate": "I-20 · Exit 96"
 },
 "662|TX": {
  "lat": 34.2922,
  "lng": -99.7578,
  "address": "1415 W 11th Street",
  "zip": "79252",
  "phone": "(940) 663-2567",
  "interstate": "Hwy 287 · Airport Road"
 },
 "658|OK": {
  "lat": 36.1754,
  "lng": -94.5736,
  "address": "3033 Highway 412",
  "zip": "74964",
  "phone": "(918) 422-4300",
  "interstate": "Hwy 412 · Sassafras St"
 },
 "641|TN": {
  "lat": 36.0711,
  "lng": -89.3955,
  "address": "3070 Lake Road",
  "zip": "38024",
  "phone": "(731) 287-0941",
  "interstate": "I-155 · 13/Hwy 78"
 },
 "659|AZ": {
  "lat": 33.458,
  "lng": -112.2391,
  "address": "8313 Roosevelt St",
  "zip": "85353",
  "phone": "(623) 936-1037",
  "interstate": "I-10 · Exit 135"
 },
 "632|KS": {
  "lat": 37.0448,
  "lng": -100.9008,
  "address": "1000 E Pancake Blvd",
  "zip": "67901",
  "phone": "(620) 626-5409",
  "interstate": "Hwy 54 · Hwy 270/83 @ 5th St"
 },
 "595|MS": {
  "lat": 30.4191,
  "lng": -89.1902,
  "address": "9240 County Farm Rd",
  "zip": "39503",
  "phone": "(228) 832-0199",
  "interstate": "I-10 · Exit 28"
 },
 "609|TX": {
  "lat": 33.2631,
  "lng": -97.1795,
  "address": "6421 N I-35",
  "zip": "76207",
  "phone": "(940) 320-1457",
  "interstate": "I-35 · 471/US-77"
 },
 "657|SC": {
  "lat": 33.9537,
  "lng": -80.9934,
  "address": "2015 Bluff Rd",
  "zip": "29033",
  "phone": "(803) 799-8787",
  "interstate": "I-77 · 5 @ Bluff Rd"
 },
 "116|KS": {
  "lat": 37.2858,
  "lng": -100.3403,
  "address": "115 N Fowler St",
  "zip": "67864",
  "phone": "(620) 873-2270",
  "interstate": "US Hwy-54/160 · KS Hwy-23/N Fowler St"
 },
 "671|AR": {
  "lat": 35.8848,
  "lng": -89.9182,
  "address": "3910 South Division Street",
  "zip": "72315",
  "phone": "(870) 776-1126",
  "interstate": "I-55 · 63 @ Hwy 61"
 },
 "663|LA": {
  "lat": 30.5467,
  "lng": -91.9635,
  "address": "17635 Highway 190",
  "zip": "70577",
  "phone": "(337) 585-2527",
  "interstate": "Hwy 190 · Hwy 103/Saizan Ave"
 },
 "675|OK": {
  "lat": 35.6358,
  "lng": -95.9627,
  "address": "1300 N Wood Drive",
  "zip": "74447",
  "phone": "(918) 758-4362",
  "interstate": "Hwy 75 · E Box Ave"
 },
 "620|FL": {
  "lat": 29.602,
  "lng": -82.0868,
  "address": "5615 SE US Highway 301",
  "zip": "32640",
  "phone": "(352) 481-0170",
  "interstate": "Hwy 301 · SE 57 Ave"
 },
 "665|TX": {
  "lat": 29.1972,
  "lng": -95.457,
  "address": "19477 FM 523",
  "zip": "77515",
  "phone": "(979) 849-5905",
  "interstate": "Hwy 288 · FM 523"
 },
 "664|IN": {
  "lat": 39.3479,
  "lng": -87.3897,
  "address": "1730 E Harlan Drive",
  "zip": "47802",
  "phone": "(812) 298-9812",
  "interstate": "Hwy 41 · Harlan Dr"
 },
 "653|CO": {
  "lat": 38.4878,
  "lng": -102.7852,
  "address": "15596 US Highway 287",
  "zip": "81036",
  "phone": "(719) 438-5500",
  "interstate": "Hwy 287 · N of Town"
 },
 "692|KS": {
  "lat": 37.6462,
  "lng": -95.4771,
  "address": "3301 N Blue Comet Dr",
  "zip": "66720",
  "phone": "(620) 431-0703",
  "interstate": "Hwy 169 · 190th Rd"
 },
 "642|TX": {
  "lat": 34.81,
  "lng": -102.4077,
  "address": "901 West 1st St",
  "zip": "79045",
  "phone": "(806) 364-4491",
  "interstate": "Hwy 60 · Hwy 385"
 },
 "670|IA": {
  "lat": 43.1228,
  "lng": -92.7355,
  "address": "100 Monroe Street",
  "zip": "50435",
  "phone": "(641) 398-2404",
  "interstate": "Hwy 18 · Monroe St"
 },
 "676|NE": {
  "lat": 40.6734,
  "lng": -96.1787,
  "address": "188 N 30th Rd",
  "zip": "68446",
  "phone": "(402) 269-2194",
  "interstate": "Hwy 2 · Hwy 50"
 },
 "681|WA": {
  "lat": 46.2196,
  "lng": -119.7929,
  "address": "700 Wine Country Rd",
  "zip": "99350",
  "phone": "(509) 786-1293",
  "interstate": "I-82 · 80 @ Gap Rd"
 },
 "679|MT": {
  "lat": 45.7483,
  "lng": -107.6115,
  "address": "1270 N State Highway 47",
  "zip": "59034",
  "phone": "(406) 665-9029",
  "interstate": "I-90 · 495/Hwy 47"
 },
 "680|NE": {
  "lat": 42.0113,
  "lng": -97.4276,
  "address": "1300 Monroe Ave",
  "zip": "68701",
  "phone": "(402) 379-2920",
  "interstate": "Hwy 81 · Monroe Ave"
 },
 "669|MO": {
  "lat": 39.574,
  "lng": -91.4023,
  "address": "17550 Highway 19",
  "zip": "63459",
  "phone": "(573) 985-5683",
  "interstate": "Hwy 61 · Hwy 19"
 },
 "637|WI": {
  "lat": 43.3903,
  "lng": -89.4694,
  "address": "W9493 County Road Cs",
  "zip": "53955",
  "phone": "(608) 635-2944",
  "interstate": "I-90 · 115 @ CR CS"
 },
 "117|OK": {
  "lat": 35.9463,
  "lng": -97.5946,
  "address": "432 S Grand St",
  "zip": "73028",
  "phone": "(405) 969-3639",
  "interstate": "Hwy 74 · South of Town"
 },
 "695|KS": {
  "lat": 37.6403,
  "lng": -98.4282,
  "address": "445 E Leiter Ave",
  "zip": "67035",
  "phone": "(620) 298-2061",
  "interstate": "Hwy 400 · 170th Ave"
 },
 "684|IA": {
  "lat": 42.3121,
  "lng": -93.5721,
  "address": "1400 Industrial Park Road",
  "zip": "50075",
  "phone": "(515) 836-4800",
  "interstate": "I-35 · 133/IA Hwy-175"
 },
 "687|IL": {
  "lat": 39.6897,
  "lng": -90.23,
  "address": "201 Loves Dr",
  "zip": "62650",
  "phone": "(217) 243-0400",
  "interstate": "I-72 · 64 @ Hwy 267"
 },
 "640|WI": {
  "lat": 43.6769,
  "lng": -87.7577,
  "address": "6710 South Business Dr",
  "zip": "53081",
  "phone": "(920) 458-1697",
  "interstate": "I-43 · 120/CR-V"
 },
 "691|NV": {
  "lat": 39.2427,
  "lng": -114.8691,
  "address": "1701 Great Basin Blvd",
  "zip": "89301",
  "phone": "(775) 289-3520",
  "interstate": "Hwy 50/93 · Hwy 6"
 },
 "688|IL": {
  "lat": 39.2536,
  "lng": -88.1523,
  "address": "203 N Haughton Hwy",
  "zip": "62428",
  "phone": "(217) 923-3220",
  "interstate": "I-70 · 119 @ SR-130"
 },
 "685|IL": {
  "lat": 40.9185,
  "lng": -90.2932,
  "address": "1405 Knox Hwy 9",
  "zip": "61448",
  "phone": "(309) 289-2805",
  "interstate": "I-74 · Exit 51"
 },
 "678|TX": {
  "lat": 33.6954,
  "lng": -95.5553,
  "address": "3215 N Main St",
  "zip": "75460",
  "phone": "(903) 737-1950",
  "interstate": "Hwy 271 · 1/2 Mi N of Hwy 82"
 },
 "683|FL": {
  "lat": 26.8348,
  "lng": -81.1319,
  "address": "23073 N US Highway 27",
  "zip": "33471",
  "phone": "(863) 946-0519",
  "interstate": "Hwy 27 · SR 78"
 },
 "686|UT": {
  "lat": 41.5088,
  "lng": -112.0537,
  "address": "20 South 1550 West St",
  "zip": "84302",
  "phone": "(435) 723-1789",
  "interstate": "I-15 · Exit 363"
 },
 "677|MS": {
  "lat": 33.5845,
  "lng": -88.6581,
  "address": "5360 Hwy 45A S",
  "zip": "39773",
  "phone": "(662) 494-0122",
  "interstate": "Hwy 45A · Lagoon Rd"
 },
 "667|NC": {
  "lat": 36.0678,
  "lng": -79.3136,
  "address": "1217 Trollingwood Hawflds Rd",
  "zip": "27302",
  "phone": "(919) 563-1814",
  "interstate": "I-40/85 · 152/Trollingwood Rd"
 },
 "682|MD": {
  "lat": 39.7007,
  "lng": -77.7338,
  "address": "14188 Perini Ave",
  "zip": "21742",
  "phone": "(301) 393-3740",
  "interstate": "I-81 · Exit 10A"
 },
 "672|TX": {
  "lat": 28.0117,
  "lng": -97.5328,
  "address": "13886 FM 1945",
  "zip": "78387",
  "phone": "(361) 364-9215",
  "interstate": "Hwy 77 · Hwy 77B/FM 1945"
 },
 "698|GA": {
  "lat": 32.7175,
  "lng": -83.7334,
  "address": "1190 Frank Amerson Pkwy",
  "zip": "31216",
  "phone": "(478) 785-8715",
  "interstate": "I-75 · 153/Sardis Church Rd"
 },
 "697|NC": {
  "lat": 35.6357,
  "lng": -81.3011,
  "address": "1760 Southfork Dr",
  "zip": "28658",
  "phone": "(828) 466-6788",
  "interstate": "Hwy 321 · 37/Hwy 10"
 },
 "693|OH": {
  "lat": 40.8557,
  "lng": -83.3008,
  "address": "1301 N Warpole St",
  "zip": "43351",
  "phone": "(419) 209-0950",
  "interstate": "Hwy 30/23 · Hwy 199"
 },
 "690|OH": {
  "lat": 39.5569,
  "lng": -82.9583,
  "address": "25727 Duroc St",
  "zip": "43113",
  "phone": "(740) 474-4126",
  "interstate": "Hwy 23 · Pittsburgh Rd"
 },
 "703|KS": {
  "lat": 38.0142,
  "lng": -97.942,
  "address": "3 Des Moines West",
  "zip": "67505",
  "phone": "(620) 662-2778",
  "interstate": "Hwy 50 · Hwy 96"
 },
 "699|MS": {
  "lat": 31.8742,
  "lng": -89.7558,
  "address": "1790 Simpson Highway 49",
  "zip": "39111",
  "phone": "(601) 849-1817",
  "interstate": "Hwy 49 · Goodwater Rd"
 },
 "696|TX": {
  "lat": 29.9893,
  "lng": -94.2116,
  "address": "7495 Smith Rd",
  "zip": "77713",
  "phone": "(409) 840-9602",
  "interstate": "I-10 · 843/Smith Rd"
 },
 "705|VA": {
  "lat": 37.5015,
  "lng": -77.0907,
  "address": "6870 Jimmy Burrell Ln",
  "zip": "23140",
  "phone": "(804) 966-8150",
  "interstate": "I-64 · 211/Hwy 106"
 },
 "713|TX": {
  "lat": 33.2212,
  "lng": -97.7379,
  "address": "2300 US Highway 380",
  "zip": "76426",
  "phone": "(940) 683-3325",
  "interstate": "Hwy 380 · CR 1304"
 },
 "661|AR": {
  "lat": 34.1936,
  "lng": -91.9206,
  "address": "4800 Highway 65 S",
  "zip": "71601",
  "phone": "(870) 536-8274",
  "interstate": "Hwy 65/425 · Hwy 81"
 },
 "712|OK": {
  "lat": 35.2772,
  "lng": -97.6012,
  "address": "235 NW 24th St",
  "zip": "73065",
  "phone": "(405) 387-2660",
  "interstate": "I-44 · 107/24th St"
 },
 "711|OH": {
  "lat": 40.6529,
  "lng": -82.546,
  "address": "976 State Route 97 W",
  "zip": "44813",
  "phone": "(419) 886-0034",
  "interstate": "I-71 · 165/Hwy-97"
 },
 "704|IA": {
  "lat": 41.0462,
  "lng": -95.827,
  "address": "57964 188th St",
  "zip": "51561",
  "phone": "(712) 622-8201",
  "interstate": "I-29 · 35-B/Hwy 34"
 },
 "649|CO": {
  "lat": 40.2661,
  "lng": -103.6394,
  "address": "1015 Hospital Rd",
  "zip": "80723",
  "phone": "(970) 842-9840",
  "interstate": "I-76 · 89/Hospital Rd"
 },
 "694|TN": {
  "lat": 35.0767,
  "lng": -88.5451,
  "address": "6870 Highway 45 S",
  "zip": "38367",
  "phone": "(731) 645-5163",
  "interstate": "Hwy 45 · Hwy 57/5"
 },
 "717|VA": {
  "lat": 37.1566,
  "lng": -77.2736,
  "address": "7200 County Dr",
  "zip": "23842",
  "phone": "(804) 722-0251",
  "interstate": "Hwy 460 · SR 156/Prince George Dr"
 },
 "720|LA": {
  "lat": 31.3608,
  "lng": -92.5886,
  "address": "7046 Highway 1",
  "zip": "71409",
  "phone": "(318) 448-6025",
  "interstate": "I-49 · Exit 94"
 },
 "708|FL": {
  "lat": 28.6682,
  "lng": -82.1472,
  "address": "2615 W C-48",
  "zip": "33513",
  "phone": "(352) 793-1019",
  "interstate": "I-75 · 314/CR-48"
 },
 "718|AL": {
  "lat": 32.1962,
  "lng": -86.4152,
  "address": "1127 Tyson Rd",
  "zip": "36043",
  "phone": "(334) 280-0009",
  "interstate": "I-65 · 158/Tyson Rd"
 },
 "635|AR": {
  "lat": 35.5406,
  "lng": -94.2355,
  "address": "8060 Highway 282",
  "zip": "72921",
  "phone": "(479) 632-0587",
  "interstate": "I-49 · 24/Hwy 282"
 },
 "719|TX": {
  "lat": 31.1912,
  "lng": -97.3121,
  "address": "1610 Cotton Gin Rd",
  "zip": "76579",
  "phone": "(254) 938-2579",
  "interstate": "I-35 · 308 NB/306 SB"
 },
 "702|IA": {
  "lat": 42.4617,
  "lng": -92.404,
  "address": "3301 Greyhound Dr",
  "zip": "50701",
  "phone": "(319) 234-4378",
  "interstate": "HWY 20 · 227/HWY 63"
 },
 "668|CO": {
  "lat": 40.3052,
  "lng": -104.9842,
  "address": "3800 E State Highway 56",
  "zip": "80513",
  "phone": "(970) 532-2507",
  "interstate": "I-25 · 250/E State Hwy 56"
 },
 "716|KY": {
  "lat": 37.6547,
  "lng": -85.8869,
  "address": "601 S Ring Rd",
  "zip": "42701",
  "phone": "(270) 982-2600",
  "interstate": "Western KY Pkwy · Exit 133"
 },
 "721|TX": {
  "lat": 32.2876,
  "lng": -96.544,
  "address": "6550 S Interstate 45 Service Rd",
  "zip": "75119",
  "phone": "(972) 875-8103",
  "interstate": "I-45 · 246/FM-1183"
 },
 "723|WY": {
  "lat": 41.329,
  "lng": -105.6103,
  "address": "1770 McCue St",
  "zip": "82072",
  "phone": "(307) 742-2910",
  "interstate": "I-80 · 310/W Curtis St"
 },
 "706|VA": {
  "lat": 38.0221,
  "lng": -79.1423,
  "address": "3499 Lee Jackson Highway",
  "zip": "24401",
  "phone": "(540) 337-1070",
  "interstate": "I-64 · Exit 213"
 },
 "497|NC": {
  "lat": 35.8124,
  "lng": -80.8334,
  "address": "229 Mocksville Hwy",
  "zip": "28625",
  "phone": "(704) 838-1539",
  "interstate": "I-40 · 154/Old Mocksville Rd"
 },
 "715|VA": {
  "lat": 37.1777,
  "lng": -81.1405,
  "address": "6168 N Scenic Hwy",
  "zip": "24314",
  "phone": "(276) 688-1478",
  "interstate": "I-77 · 58/N Scenic Hwy"
 },
 "701|MI": {
  "lat": 42.9893,
  "lng": -82.9289,
  "address": "3191 Capac Rd",
  "zip": "48014",
  "phone": "(810) 395-9690",
  "interstate": "I-69 · 176/Capac Rd"
 },
 "645|MI": {
  "lat": 41.9648,
  "lng": -83.3451,
  "address": "1609 Nadeau Rd",
  "zip": "48161",
  "phone": "(734) 289-4111",
  "interstate": "I-75 · 18/Nadeau Rd"
 },
 "714|NC": {
  "lat": 35.2554,
  "lng": -80.9807,
  "address": "2603 Sam Wilson Rd",
  "zip": "28214",
  "phone": "(704) 392-7511",
  "interstate": "I-85 · 29/Sam Wilson Rd"
 },
 "901|TX": {
  "lat": 35.1917,
  "lng": -101.7215,
  "address": "10000 I-40 East",
  "zip": "79118",
  "phone": "(806) 335-1200",
  "interstate": "I-40 · Exit 76"
 },
 "902|OR": {
  "lat": 45.2328,
  "lng": -122.8116,
  "address": "12227 Melinda Ln",
  "zip": "97002",
  "phone": "(503) 678-7951",
  "interstate": "I-5 · Exit 278"
 },
 "907|AZ": {
  "lat": 32.8051,
  "lng": -111.672,
  "address": "8212 S Sunland Gin Rd",
  "zip": "85131",
  "phone": "(520) 421-2163",
  "interstate": "I-10 · Exit 200"
 },
 "910|CA": {
  "lat": 39.9032,
  "lng": -122.1968,
  "address": "3595 HWY 99 W",
  "zip": "96021",
  "phone": "(530) 824-3504",
  "interstate": "I-5 · South Ave"
 },
 "917|NV": {
  "lat": 39.6151,
  "lng": -119.2689,
  "address": "900 Pilot Rd",
  "zip": "89408",
  "phone": "(775) 575-0612",
  "interstate": "I-80 · Exit 46"
 },
 "931|AZ": {
  "lat": 35.1793,
  "lng": -113.7933,
  "address": "875 TY Rd",
  "zip": "86401",
  "phone": "(928) 757-2220",
  "interstate": "I-40 · Exit 66"
 },
 "936|NV": {
  "lat": 36.213,
  "lng": -115.1298,
  "address": "2920 Losee Rd",
  "zip": "89030",
  "phone": "(702) 639-9191",
  "interstate": "I-15 · Exit 46"
 },
 "944|CA": {
  "lat": 37.7554,
  "lng": -121.1396,
  "address": "1515 Hoff Dr",
  "zip": "95366",
  "phone": "(209) 599-7961",
  "interstate": "Hwy 99 · 237B/Jacktone Rd"
 },
 "948|WA": {
  "lat": 47.5877,
  "lng": -117.5677,
  "address": "10916 W Westbow Rd",
  "zip": "99224",
  "phone": "(509) 747-0815",
  "interstate": "I-90 · Exit 272"
 },
 "904|TX": {
  "lat": 29.7983,
  "lng": -95.0274,
  "address": "2110 E I-10",
  "zip": "77520",
  "phone": "(281) 424-7267",
  "interstate": "I-10 · Exit 789"
 },
 "913|TX": {
  "lat": 32.6559,
  "lng": -96.755,
  "address": "34353 LBJ Freeway",
  "zip": "75241",
  "phone": "(972) 225-0544",
  "interstate": "I-20 · Exit 472"
 },
 "916|TX": {
  "lat": 31.6628,
  "lng": -106.237,
  "address": "1317 Horizon Blvd",
  "zip": "79928",
  "phone": "(915) 852-4854",
  "interstate": "I-10 · Exit 37"
 },
 "927|TX": {
  "lat": 32.8336,
  "lng": -96.9143,
  "address": "1812 N Loop",
  "zip": "75061",
  "phone": "(972) 554-2489",
  "interstate": "Hwy 12 Loop · Grauwyler Rd"
 },
 "935|TX": {
  "lat": 27.6083,
  "lng": -99.521,
  "address": "102 Logistics Dr",
  "zip": "78045",
  "phone": "(956) 725-2459",
  "interstate": "I-69W · Mines Rd 1/2 Mile N"
 },
 "938|NM": {
  "lat": 35.1788,
  "lng": -107.9052,
  "address": "1301 Motel Dr",
  "zip": "87021",
  "phone": "(505) 285-5303",
  "interstate": "I-40 · Exit 79"
 },
 "941|OK": {
  "lat": 35.4586,
  "lng": -97.695,
  "address": "10001 SW 8th St",
  "zip": "73128",
  "phone": "(405) 577-2718",
  "interstate": "I-40 · Exit 140"
 },
 "946|TX": {
  "lat": 29.4484,
  "lng": -98.3615,
  "address": "1855 N Foster Rd",
  "zip": "78244",
  "phone": "(210) 666-9020",
  "interstate": "I-10 · Exit 583"
 },
 "908|CO": {
  "lat": 39.7951,
  "lng": -104.9336,
  "address": "5495 Dahlia St",
  "zip": "80022",
  "phone": "(303) 296-9300",
  "interstate": "I-270 · Exit 2A"
 },
 "912|IA": {
  "lat": 41.2377,
  "lng": -95.8784,
  "address": "2423 South 24th St",
  "zip": "51501",
  "phone": "(712) 388-0577",
  "interstate": "I-80 · Exit 1B"
 },
 "915|IL": {
  "lat": 39.1355,
  "lng": -88.5687,
  "address": "1704 West Evergreen Ave",
  "zip": "62401",
  "phone": "(217) 342-6935",
  "interstate": "I-70/57 · Exit 160"
 },
 "929|MO": {
  "lat": 37.0576,
  "lng": -94.4312,
  "address": "5815 E 30th St",
  "zip": "64804",
  "phone": "(417) 206-6303",
  "interstate": "I-44 · Exit 11"
 },
 "940|MO": {
  "lat": 39.0124,
  "lng": -94.1261,
  "address": "301 SE 4th St",
  "zip": "64075",
  "phone": "(816) 690-8717",
  "interstate": "I-70 · Exit 28"
 },
 "943|IL": {
  "lat": 38.7633,
  "lng": -90.0681,
  "address": "1201 Denham Dr",
  "zip": "62040",
  "phone": "(618) 931-1575",
  "interstate": "I-270 · Exit 6B"
 },
 "949|IL": {
  "lat": 38.7389,
  "lng": -89.9096,
  "address": "2180 Liebler Rd",
  "zip": "62294",
  "phone": "(618) 667-7811",
  "interstate": "I-55/70/270 · Exit 18"
 },
 "950|IA": {
  "lat": 41.6184,
  "lng": -90.787,
  "address": "1103 Walker St",
  "zip": "52773",
  "phone": "(563) 284-6680",
  "interstate": "I-80 · Exit 284"
 },
 "903|OH": {
  "lat": 41.7872,
  "lng": -80.8518,
  "address": "2689 Sidley Ct",
  "zip": "44010",
  "phone": "(440) 275-1502",
  "interstate": "I-90 · Exit 223"
 },
 "905|OH": {
  "lat": 40.8361,
  "lng": -83.9639,
  "address": "416 Village Ave",
  "zip": "45808",
  "phone": "(419) 643-8482",
  "interstate": "I-75 · Exit 135"
 },
 "919|KY": {
  "lat": 36.7165,
  "lng": -86.5269,
  "address": "2875 Scottsville Rd",
  "zip": "42134",
  "phone": "(270) 598-9521",
  "interstate": "I-65 · Exit 6"
 },
 "920|IN": {
  "lat": 41.5713,
  "lng": -87.4017,
  "address": "5225 W 26th Ave",
  "zip": "46406",
  "phone": "(219) 844-0484",
  "interstate": "I-80/94 · Exit 6"
 },
 "921|OH": {
  "lat": 41.1377,
  "lng": -80.72,
  "address": "55 Manning Dr",
  "zip": "44420",
  "phone": "(330) 530-1582",
  "interstate": "I-80 · Exit 226"
 },
 "926|IN": {
  "lat": 39.6902,
  "lng": -86.1858,
  "address": "5191 Harding Ln",
  "zip": "46217",
  "phone": "(317) 791-0733",
  "interstate": "I-465 · Exit 4"
 },
 "942|OH": {
  "lat": 41.5338,
  "lng": -83.4686,
  "address": "26313 Baker Rd",
  "zip": "43551",
  "phone": "(419) 837-1074",
  "interstate": "I-80/90 · 71/I-280 NB"
 },
 "947|OH": {
  "lat": 41.0362,
  "lng": -81.9068,
  "address": "8686 Lake Rd",
  "zip": "44273",
  "phone": "(330) 769-1659",
  "interstate": "I-71 · Exit 209"
 },
 "952|IN": {
  "lat": 39.5474,
  "lng": -86.0361,
  "address": "4804 N White St",
  "zip": "46184",
  "phone": "(317) 535-0208",
  "interstate": "I-65 · Exit 95"
 },
 "914|SC": {
  "lat": 34.915,
  "lng": -82.1122,
  "address": "196 Mcaulay Rd",
  "zip": "29334",
  "phone": "(864) 433-0085",
  "interstate": "I-85 · Exit 63"
 },
 "924|PA": {
  "lat": 40.3535,
  "lng": -76.7293,
  "address": "7709 Linglestown Rd",
  "zip": "17112",
  "phone": "(717) 526-4840",
  "interstate": "I-81 · Exit 77"
 },
 "925|NC": {
  "lat": 36.0723,
  "lng": -79.351,
  "address": "940 Jimmie Kerr Rd",
  "zip": "27258",
  "phone": "(336) 578-7950",
  "interstate": "I-85/40 · Exit 150"
 },
 "930|NC": {
  "lat": 35.5821,
  "lng": -78.149,
  "address": "101 Woodard Dr",
  "zip": "27542",
  "phone": "(919) 284-1058",
  "interstate": "I-95 · Exit 106"
 },
 "932|TN": {
  "lat": 35.8823,
  "lng": -84.2382,
  "address": "1701 Everett Rd",
  "zip": "37932",
  "phone": "(865) 769-2373",
  "interstate": "I-40/75 · Exit 369"
 },
 "937|VA": {
  "lat": 36.9473,
  "lng": -80.9424,
  "address": "2866 Lee Hwy",
  "zip": "24360",
  "phone": "(276) 637-3102",
  "interstate": "I-77/81 · Exit 80"
 },
 "939|AR": {
  "lat": 34.7787,
  "lng": -92.1279,
  "address": "3112 Highway 391 N",
  "zip": "72117",
  "phone": "(501) 945-6047",
  "interstate": "I-40 · Exit 161"
 },
 "945|VA": {
  "lat": 37.9411,
  "lng": -77.4636,
  "address": "23728 Rogers Clark Blvd",
  "zip": "22546",
  "phone": "(804) 448-5140",
  "interstate": "I-95 · Exit 104"
 },
 "951|AR": {
  "lat": 35.154,
  "lng": -90.1294,
  "address": "4300 Petro Rd",
  "zip": "72301",
  "phone": "(870) 732-9281",
  "interstate": "I-40 · Exit 280"
 },
 "906|GA": {
  "lat": 31.1381,
  "lng": -81.5729,
  "address": "130 Pilot Dr",
  "zip": "31523",
  "phone": "(912) 264-5730",
  "interstate": "I-95 · Exit 29"
 },
 "909|GA": {
  "lat": 33.6602,
  "lng": -84.3407,
  "address": "4136 Old McDonough Rd",
  "zip": "30288",
  "phone": "(404) 362-1224",
  "interstate": "I-285 · Exit 53"
 },
 "911|AL": {
  "lat": 33.1799,
  "lng": -87.4483,
  "address": "3120 Buttermilk Rd",
  "zip": "35453",
  "phone": "(205) 462-1180",
  "interstate": "I-20/59 · Exit 77"
 },
 "918|MS": {
  "lat": 32.2789,
  "lng": -90.153,
  "address": "740 Highway 80 E",
  "zip": "39232",
  "phone": "(601) 932-5707",
  "interstate": "I-20 · Exit 47B"
 },
 "922|LA": {
  "lat": 32.4472,
  "lng": -93.9849,
  "address": "9620 Highway 80",
  "zip": "71033",
  "phone": "(318) 938-1315",
  "interstate": "I-20 · Exit 3"
 },
 "923|LA": {
  "lat": 30.4764,
  "lng": -90.4565,
  "address": "2205 SW Railroad Ave",
  "zip": "70403",
  "phone": "(985) 429-1717",
  "interstate": "I-12 · Exit 40"
 },
 "928|GA": {
  "lat": 33.2062,
  "lng": -84.0639,
  "address": "1111 Bucksnort Rd",
  "zip": "30233",
  "phone": "(770) 504-1860",
  "interstate": "I-75 · Exit 201"
 },
 "933|GA": {
  "lat": 30.646,
  "lng": -83.1851,
  "address": "6847 Lake Park Bellville Rd",
  "zip": "31636",
  "phone": "(229) 559-0182",
  "interstate": "I-75 · Exit 2"
 },
 "118|OK": {
  "lat": 34.6417,
  "lng": -97.1733,
  "address": "305 W Robert S Kerr Blvd",
  "zip": "73098",
  "phone": "(405) 665-2010",
  "interstate": "Hwy 77 · N Jarrett Ave"
 },
 "734|OK": {
  "lat": 34.1731,
  "lng": -98.4983,
  "address": "251344 Highway 70",
  "zip": "73562",
  "phone": "(580) 281-3563",
  "interstate": "I-44 · 5/Hwy 70"
 },
 "726|NM": {
  "lat": 34.6526,
  "lng": -106.7934,
  "address": "1903 Camino Del Llano",
  "zip": "87002",
  "phone": "(505) 864-6107",
  "interstate": "I-25 · Exit 191"
 },
 "709|TX": {
  "lat": 31.4112,
  "lng": -94.7186,
  "address": "5614 Hwy 59 N",
  "zip": "75901",
  "phone": "(936) 632-3537",
  "interstate": "US Hwy 59 · FM 2021"
 },
 "724|FL": {
  "lat": 30.0026,
  "lng": -82.5985,
  "address": "13700 S US Highway 441",
  "zip": "32025",
  "phone": "(386) 752-2466",
  "interstate": "I-75 · 414/US Hwy-41/441"
 },
 "725|KY": {
  "lat": 37.4165,
  "lng": -87.4746,
  "address": "325 Veterans Dr",
  "zip": "42413",
  "phone": "(270) 322-9001",
  "interstate": "I-69 · 120/Hwy 260"
 },
 "733|NM": {
  "lat": 35.6199,
  "lng": -105.2079,
  "address": "2401 N Grand Ave",
  "zip": "87701",
  "phone": "(505) 425-9453",
  "interstate": "I-25 · 347/N Grand Ave"
 },
 "710|IN": {
  "lat": 40.2764,
  "lng": -86.13,
  "address": "1875 Campbell Crossing",
  "zip": "46072",
  "phone": "(765) 963-4167",
  "interstate": "Hwy 31 · CR 28"
 },
 "728|OR": {
  "lat": 44.6987,
  "lng": -123.0551,
  "address": "6457 Old Salem Rd NE",
  "zip": "97321",
  "phone": "(541) 928-1900",
  "interstate": "I-5 · 238/Old Salem Rd"
 },
 "652|CA": {
  "lat": 39.1673,
  "lng": -122.1438,
  "address": "100 Marguerite Street",
  "zip": "95987",
  "phone": "(530) 473-3030",
  "interstate": "I-5 · 578/Hwy 20"
 },
 "739|TX": {
  "lat": 26.1827,
  "lng": -98.0672,
  "address": "545 W I-2",
  "zip": "78537",
  "phone": "(956) 464-1133",
  "interstate": "I-2 · 153/Hutto Road"
 },
 "740|SC": {
  "lat": 32.7055,
  "lng": -80.8745,
  "address": "409 Yemassee Hwy",
  "zip": "29945",
  "phone": "(843) 589-2010",
  "interstate": "I-95 · 38/Hwy 68"
 },
 "700|TX": {
  "lat": 30.5711,
  "lng": -100.5856,
  "address": "3880 Loop 467",
  "zip": "76950",
  "phone": "(325) 387-2768",
  "interstate": "I-10 · 404/Loop 467"
 },
 "737|OK": {
  "lat": 35.4969,
  "lng": -97.9028,
  "address": "3900 S Radio Rd",
  "zip": "73036",
  "phone": "(405) 422-1904",
  "interstate": "I-40 · 127/Radio Rd"
 },
 "738|TX": {
  "lat": 33.1174,
  "lng": -95.6368,
  "address": "1201 S Hillcrest Dr",
  "zip": "75482",
  "phone": "(903) 438-1801",
  "interstate": "I-30 · 122/Hillcrest Dr"
 },
 "741|NC": {
  "lat": 36.3267,
  "lng": -79.6404,
  "address": "2105 Barnes Street",
  "zip": "27320",
  "phone": "(336) 342-1656",
  "interstate": "Hwy 29 · Exit 150"
 },
 "747|OH": {
  "lat": 40.2653,
  "lng": -84.186,
  "address": "2241 Fair Rd",
  "zip": "45365",
  "phone": "(937) 492-1163",
  "interstate": "I-75 · 90/Fair Rd"
 },
 "729|IN": {
  "lat": 41.6659,
  "lng": -85.8882,
  "address": "2201 CR 17",
  "zip": "46528",
  "phone": "(574) 389-1737",
  "interstate": "Hwy 20 · CR 17/4.5MI S of I-90"
 },
 "732|KS": {
  "lat": 38.9334,
  "lng": -97.2581,
  "address": "2322 Fair Rd",
  "zip": "67410",
  "phone": "(785) 263-3390",
  "interstate": "I-70 · 272/Fair Rd"
 },
 "707|VA": {
  "lat": 37.7943,
  "lng": -79.884,
  "address": "9104 Winterberry Ave",
  "zip": "24426",
  "phone": "(540) 862-9044",
  "interstate": "I-64 · 21, NEC"
 },
 "750|IL": {
  "lat": 40.1306,
  "lng": -87.7773,
  "address": "17919 Newtown Rd",
  "zip": "61858",
  "phone": "(217) 354-3854",
  "interstate": "I-74 · Exit 206"
 },
 "742|MI": {
  "lat": 42.7828,
  "lng": -86.0232,
  "address": "9790 Adams St",
  "zip": "49424",
  "phone": "(616) 772-3101",
  "interstate": "I-196 · 52/Adams St"
 },
 "953|KY": {
  "lat": 38.4597,
  "lng": -85.2987,
  "address": "524 Pendleton Rd",
  "zip": "40055",
  "phone": "(502) 743-0205",
  "interstate": "I-71 · 28/Hwy-153"
 },
 "753|MT": {
  "lat": 46.9476,
  "lng": -114.1336,
  "address": "8077 Hwy 10 West",
  "zip": "59808",
  "phone": "(406) 721-8386",
  "interstate": "I-90 · Exit 96"
 },
 "745|MI": {
  "lat": 42.8653,
  "lng": -82.5581,
  "address": "1336 Wadhams Road",
  "zip": "48079",
  "phone": "(810) 326-4173",
  "interstate": "I-94 · 262/Wadhams Rd"
 },
 "748|OH": {
  "lat": 41.6276,
  "lng": -84.7673,
  "address": "14553 State Route 49",
  "zip": "43518",
  "phone": "(419) 272-1515",
  "interstate": "I-90 · OH-49"
 },
 "754|IL": {
  "lat": 41.898,
  "lng": -89.0667,
  "address": "400 Steward Road",
  "zip": "61068",
  "phone": "(815) 561-1125",
  "interstate": "I-88 · 76/IL-251"
 },
 "763|IL": {
  "lat": 42.1491,
  "lng": -88.5145,
  "address": "201 Love's Crossing",
  "zip": "60140",
  "phone": "(847) 683-7433",
  "interstate": "I-90 · 42/US 20"
 },
 "765|GA": {
  "lat": 34.2274,
  "lng": -83.4994,
  "address": "4855 Maysville Road",
  "zip": "30529",
  "phone": "(706) 336-0075",
  "interstate": "I-85 · 147/Hwy 98"
 },
 "746|IL": {
  "lat": 39.8926,
  "lng": -89.0029,
  "address": "3925 County Fair Dr",
  "zip": "62526",
  "phone": "(217) 875-8035",
  "interstate": "I-72 · 138/IL-121"
 },
 "743|MI": {
  "lat": 43.3487,
  "lng": -83.8618,
  "address": "6560 Dixie Highway",
  "zip": "48722",
  "phone": "(989) 746-9561",
  "interstate": "I-75 · Exit 144"
 },
 "731|PA": {
  "lat": 41.0369,
  "lng": -80.1275,
  "address": "1011 New Castle Road",
  "zip": "16057",
  "phone": "(724) 530-2965",
  "interstate": "I-79 · 105/Hwy 108"
 },
 "735|GA": {
  "lat": 34.4439,
  "lng": -84.9152,
  "address": "1081 Belwood Road SE",
  "zip": "30701",
  "phone": "(706) 624-8193",
  "interstate": "I-75 · Exit 310"
 },
 "749|CA": {
  "lat": 33.0378,
  "lng": -115.6291,
  "address": "551 West Main Street",
  "zip": "92281",
  "phone": "(760) 351-8725",
  "interstate": "Hwy 86 · Martin Rd"
 },
 "766|IL": {
  "lat": 41.4106,
  "lng": -90.0163,
  "address": "5 South State Street",
  "zip": "61235",
  "phone": "(309) 936-1488",
  "interstate": "I-80 · 27/State St"
 },
 "727|OK": {
  "lat": 36.5681,
  "lng": -95.2183,
  "address": "437071 E 310 Road",
  "zip": "74332",
  "phone": "(918) 783-5300",
  "interstate": "I-44 · 283/Highway 69"
 },
 "760|NM": {
  "lat": 32.4344,
  "lng": -103.1211,
  "address": "16 Andrews Hwy",
  "zip": "88231",
  "phone": "(575) 394-0015",
  "interstate": "Hwy 18 · Hwy 234/Andrews"
 },
 "764|TN": {
  "lat": 35.4197,
  "lng": -86.0146,
  "address": "1165 Aedc Road",
  "zip": "37342",
  "phone": "(931) 253-6001",
  "interstate": "I-24 · Exit 117"
 },
 "767|TX": {
  "lat": 25.9549,
  "lng": -97.4185,
  "address": "3400 Nafta Parkway",
  "zip": "78526",
  "phone": "(956) 831-6770",
  "interstate": "Hwy 48 · FM 511"
 },
 "759|AR": {
  "lat": 34.8153,
  "lng": -91.5674,
  "address": "3404 Highway 63 N",
  "zip": "72064",
  "phone": "(870) 255-1395",
  "interstate": "I-40 · 193/US Highway 63"
 },
 "752|WI": {
  "lat": 42.6526,
  "lng": -88.542,
  "address": "100 E Commerce Ct",
  "zip": "53121",
  "phone": "(262) 723-8888",
  "interstate": "I-43 · Exit 25"
 },
 "674|FL": {
  "lat": 27.8729,
  "lng": -81.5932,
  "address": "17309 Hwy 27",
  "zip": "33853",
  "phone": "(863) 676-4440",
  "interstate": "Highway 27 · CR-17B/Hunt Brothers Rd"
 },
 "736|CA": {
  "lat": 36.9956,
  "lng": -120.0963,
  "address": "3174 Avenue 17",
  "zip": "93638",
  "phone": "(559) 661-1012",
  "interstate": "Hwy 99 · 157/Avenue 17"
 },
 "769|KS": {
  "lat": 39.0821,
  "lng": -95.726,
  "address": "1811 NW Brickyard Road",
  "zip": "66618",
  "phone": "(785) 357-8302",
  "interstate": "Hwy 75 · NW 17th St"
 },
 "773|AL": {
  "lat": 32.8667,
  "lng": -87.9222,
  "address": "7561 Mesopotamia Street",
  "zip": "35462",
  "phone": "(205) 372-9244",
  "interstate": "I-20/I-59 · 40/AL-14"
 },
 "783|MO": {
  "lat": 36.9752,
  "lng": -91.9406,
  "address": "1310 East Main Street",
  "zip": "65793",
  "phone": "(417) 469-1170",
  "interstate": "Hwy-60/63 · Industrial Drive"
 },
 "792|UT": {
  "lat": 38.9951,
  "lng": -110.1852,
  "address": "1810 Main Street",
  "zip": "84525",
  "phone": "(435) 564-8262",
  "interstate": "I-70 · 160 NWQ"
 },
 "119|UT": {
  "lat": 38.9946,
  "lng": -110.184,
  "address": "1775 W Main Street",
  "zip": "84525",
  "phone": "(435) 564-3302",
  "interstate": "I-70 · Exit 160"
 },
 "689|AR": {
  "lat": 33.3299,
  "lng": -91.2932,
  "address": "294 Hwy 65/82",
  "zip": "71653",
  "phone": "(870) 265-9988",
  "interstate": "Hwy 65 · Hwy 82"
 },
 "751|SC": {
  "lat": 34.1395,
  "lng": -80.7483,
  "address": "701 White Pond Road",
  "zip": "29045",
  "phone": "(803) 408-0275",
  "interstate": "I-20 · Exit 87"
 },
 "774|AL": {
  "lat": 32.537,
  "lng": -85.0825,
  "address": "747 Lee Road 248",
  "zip": "36877",
  "phone": "(334) 291-3059",
  "interstate": "Hwy 280/431 · CR-248 N"
 },
 "744|OH": {
  "lat": 39.8451,
  "lng": -82.9377,
  "address": "6023 Alum Creek Drive",
  "zip": "43137",
  "phone": "(614) 491-8477",
  "interstate": "I-270 · 49/2-mi S on Alum Crk Rd"
 },
 "784|NE": {
  "lat": 41.4516,
  "lng": -97.0842,
  "address": "979 Road E",
  "zip": "68661",
  "phone": "(402) 352-7909",
  "interstate": "Hwy 30 · CR-9/Road E"
 },
 "757|MI": {
  "lat": 42.0765,
  "lng": -83.6679,
  "address": "14137 Plank Road",
  "zip": "48160",
  "phone": "(734) 439-7406",
  "interstate": "Hwy 23 · 25/Plank Road"
 },
 "758|IL": {
  "lat": 38.5617,
  "lng": -90.1322,
  "address": "2005 Mousette Ln",
  "zip": "62206",
  "phone": "(618) 332-7706",
  "interstate": "I-255 · Exit 15"
 },
 "785|MI": {
  "lat": 42.7853,
  "lng": -84.6681,
  "address": "7300 West Grand River Ave",
  "zip": "48837",
  "phone": "(517) 626-7370",
  "interstate": "I-96 · Exit 90"
 },
 "770|IL": {
  "lat": 42.489,
  "lng": -87.9534,
  "address": "43100 US Hwy 41",
  "zip": "60083",
  "phone": "(847) 838-4265",
  "interstate": "I-94/US 41 · 1/Russell Rd"
 },
 "776|MS": {
  "lat": 32.3626,
  "lng": -90.6671,
  "address": "700 Ceres Blvd",
  "zip": "39183",
  "phone": "(601) 636-6088",
  "interstate": "I-20 · Exit 15"
 },
 "779|AR": {
  "lat": 34.3876,
  "lng": -92.8465,
  "address": "6716 Hwy 171",
  "zip": "72104",
  "phone": "(501) 337-9545",
  "interstate": "I-30 · Exit 97"
 },
 "790|SC": {
  "lat": 33.5918,
  "lng": -80.3558,
  "address": "401 Buff Blvd",
  "zip": "29148",
  "phone": "(803) 488-2000",
  "interstate": "I-95 · 108/Bluff Blvd."
 },
 "762|TX": {
  "lat": 27.6446,
  "lng": -99.5554,
  "address": "101 Pinnacle Road",
  "zip": "78045",
  "phone": "(956) 727-6098",
  "interstate": "FM-1472 · Pinnacle Rd"
 },
 "795|OR": {
  "lat": 44.6123,
  "lng": -121.1376,
  "address": "1678 SE Highway 97",
  "zip": "97741",
  "phone": "(541) 675-6008",
  "interstate": "US Hwy 26/97 · Hall Rd"
 },
 "788|MO": {
  "lat": 38.8981,
  "lng": -91.4536,
  "address": "482 Tree Farm Rd",
  "zip": "63363",
  "phone": "(573) 835-3100",
  "interstate": "I-70 · 175/Hwy 19 S"
 },
 "791|TN": {
  "lat": 35.8406,
  "lng": -88.0818,
  "address": "13820 Highway 641 N",
  "zip": "38341",
  "phone": "(731) 847-3380",
  "interstate": "I-40 · 126/Hwy 641"
 },
 "778|GA": {
  "lat": 32.1836,
  "lng": -81.458,
  "address": "11151 Hwy 280E",
  "zip": "31308",
  "phone": "(912) 851-5683",
  "interstate": "I-16 · 143/Hwy 280E"
 },
 "794|OK": {
  "lat": 35.8407,
  "lng": -98.3947,
  "address": "1520 E Russworm Drive",
  "zip": "73772",
  "phone": "(580) 623-2206",
  "interstate": "Hwy 3/33 · East of N2580 Rd"
 },
 "797|NV": {
  "lat": 40.9508,
  "lng": -117.7576,
  "address": "3550 W Winnemucca",
  "zip": "89445",
  "phone": "(775) 375-3070",
  "interstate": "I-80 · 176/NV Hwy-289"
 },
 "782|KY": {
  "lat": 36.7096,
  "lng": -87.4549,
  "address": "11700 Ft Campbell Blvd",
  "zip": "42262",
  "phone": "(270) 640-6053",
  "interstate": "I-24 · 86/Fort Campbell Blvd NB"
 },
 "799|MS": {
  "lat": 34.952,
  "lng": -88.9103,
  "address": "600 Richardson Drive",
  "zip": "38683",
  "phone": "(662) 223-6762",
  "interstate": "Hwy-72 · Stinson St"
 },
 "793|TN": {
  "lat": 36.0673,
  "lng": -86.4284,
  "address": "150 Couchville Industrial Blvd",
  "zip": "37122",
  "phone": "(615) 583-3461",
  "interstate": "I-840 · 67/Couchville Pike"
 },
 "781|GA": {
  "lat": 33.5629,
  "lng": -83.497,
  "address": "1500 Monticello Road",
  "zip": "30650",
  "phone": "(706) 752-0910",
  "interstate": "I-20 · 113/GA Hwy-83N"
 },
 "755|CA": {
  "lat": 35.0119,
  "lng": -117.6445,
  "address": "27201 Boron Frontage Rd N",
  "zip": "93516",
  "phone": "(661) 385-6020",
  "interstate": "Hwy 58 · 199/Boron Ave"
 },
 "853|TX": {
  "lat": 31.8525,
  "lng": -103.0698,
  "address": "674 E State Hwy 302",
  "zip": "79745",
  "phone": "(432) 586-2777",
  "interstate": "TX Hwy 302 · CR 313"
 },
 "722|AZ": {
  "lat": 34.3348,
  "lng": -112.1177,
  "address": "14414 S Cross L Rd",
  "zip": "86333",
  "phone": "(928) 227-9764",
  "interstate": "I-17 · 263/Arcosanti Rd"
 },
 "801|GA": {
  "lat": 31.9756,
  "lng": -83.7586,
  "address": "1525 E 8th Ave",
  "zip": "31015",
  "phone": "(229) 947-6205",
  "interstate": "I-75 · 102/GA Hwy-257"
 },
 "775|IL": {
  "lat": 42.2151,
  "lng": -89.1071,
  "address": "4628 South Main Street",
  "zip": "61102",
  "phone": "(779) 238-5956",
  "interstate": "US Hwy 20 · IL Hwy 2"
 },
 "798|IL": {
  "lat": 39.7932,
  "lng": -88.2661,
  "address": "809 Moore Ave",
  "zip": "61953",
  "phone": "(217) 253-6855",
  "interstate": "I-57 · 212/US Hwy-36"
 },
 "804|IL": {
  "lat": 40.8989,
  "lng": -90.6603,
  "address": "1001 W 11th Ave",
  "zip": "61462",
  "phone": "(309) 536-6044",
  "interstate": "US Hwy 34/67 · W 11th Ave"
 },
 "120|OK": {
  "lat": 35.4907,
  "lng": -94.9712,
  "address": "706 S Thornton St",
  "zip": "74962",
  "phone": "(580) 290-6058",
  "interstate": "I-40 · 297/OK Hwy-82"
 },
 "761|FL": {
  "lat": 30.2914,
  "lng": -81.9851,
  "address": "17110 Brandy Branch Rd",
  "zip": "32234",
  "phone": "(470) 768-6532",
  "interstate": "I-10 · 343/US Hwy-301"
 },
 "803|IL": {
  "lat": 37.7457,
  "lng": -88.9493,
  "address": "1900 The Hill Ave",
  "zip": "62959",
  "phone": "(618) 944-6409",
  "interstate": "I-57 · 54 SB/54B NB/The Hill Ave"
 },